[{"paysLabel":"United States of America","countryFlag":"http://commons.wikimedia.org/wiki/Special:FilePath/Flag%20of%20the%20United%20States.svg","itemLabel":"Hartsfield–Jackson Atlanta International Airport","longitude":"-84.428055","latitude":"33.6366666","MAX_patronage":"107394029"},{"paysLabel":"People's Republic of China","countryFlag":"http://commons.wikimedia.org/wiki/Special:FilePath/Flag%20of%20the%20People%27s%20Republic%20of%20China.svg","itemLabel":"Beijing Capital International Airport","longitude":"116.589722","latitude":"40.0766664","MAX_patronage":"100983290"},{"paysLabel":"United Arab Emirates","countryFlag":"http://commons.wikimedia.org/wiki/Special:FilePath/Flag%20of%20the%20United%20Arab%20Emirates.svg","itemLabel":"Dubai International Airport","longitude":"55.3644444","latitude":"25.2527777","MAX_patronage":"89149387"},{"paysLabel":"United States of America","countryFlag":"http://commons.wikimedia.org/wiki/Special:FilePath/Flag%20of%20the%20United%20States.svg","itemLabel":"Los Angeles International Airport","longitude":"-118.40805","latitude":"33.9425","MAX_patronage":"87534384"},{"paysLabel":"United States of America","countryFlag":"http://commons.wikimedia.org/wiki/Special:FilePath/Flag%20of%20the%20United%20States.svg","itemLabel":"O'Hare International Airport","longitude":"-87.904722","latitude":"41.9786111","MAX_patronage":"83245472"},{"paysLabel":"United Kingdom","countryFlag":"http://commons.wikimedia.org/wiki/Special:FilePath/Flag%20of%20the%20United%20Kingdom.svg","itemLabel":"Heathrow Airport","longitude":"-0.461389","latitude":"51.4775","MAX_patronage":"80100311"},{"paysLabel":"People's Republic of China","countryFlag":"http://commons.wikimedia.org/wiki/Special:FilePath/Flag%20of%20the%20People%27s%20Republic%20of%20China.svg","itemLabel":"Hong Kong International Airport","longitude":"113.914444","latitude":"22.308889","MAX_patronage":"74688000"},{"paysLabel":"People's Republic of China","countryFlag":"http://commons.wikimedia.org/wiki/Special:FilePath/Flag%20of%20the%20People%27s%20Republic%20of%20China.svg","itemLabel":"Shanghai Pudong International Airport","longitude":"121.805278","latitude":"31.143333","MAX_patronage":"74006331"},{"paysLabel":"People's Republic of China","countryFlag":"http://commons.wikimedia.org/wiki/Special:FilePath/Flag%20of%20the%20People%27s%20Republic%20of%20China.svg","itemLabel":"Guangzhou Baiyun International Airport","longitude":"113.298786","latitude":"23.3924361","MAX_patronage":"69720403"},{"paysLabel":"Germany","countryFlag":"http://commons.wikimedia.org/wiki/Special:FilePath/Flag%20of%20Germany.svg","itemLabel":"Frankfurt Airport","longitude":"8.57055555","latitude":"50.0333333","MAX_patronage":"69514414"},{"paysLabel":"United States of America","countryFlag":"http://commons.wikimedia.org/wiki/Special:FilePath/Flag%20of%20the%20United%20States.svg","itemLabel":"Dallas/Fort Worth International Airport","longitude":"-97.038055","latitude":"32.8969444","MAX_patronage":"69112607"},{"paysLabel":"South Korea","countryFlag":"http://commons.wikimedia.org/wiki/Special:FilePath/Flag%20of%20South%20Korea.svg","itemLabel":"Incheon International Airport","longitude":"126.439166","latitude":"37.4625","MAX_patronage":"68259763"},{"paysLabel":"Turkey","countryFlag":"http://commons.wikimedia.org/wiki/Special:FilePath/Flag%20of%20Turkey.svg","itemLabel":"Atatürk International Airport","longitude":"28.8141666","latitude":"40.9761111","MAX_patronage":"67981446"},{"paysLabel":"Indonesia","countryFlag":"http://commons.wikimedia.org/wiki/Special:FilePath/Flag%20of%20Indonesia.svg","itemLabel":"Soekarno–Hatta International Airport","longitude":"106.653833","latitude":"-6.127361","MAX_patronage":"65893904"},{"paysLabel":"Singapore","countryFlag":"http://commons.wikimedia.org/wiki/Special:FilePath/Flag%20of%20Singapore.svg","itemLabel":"Singapore Changi Airport","longitude":"103.989444","latitude":"1.359167","MAX_patronage":"65600000"},{"paysLabel":"United States of America","countryFlag":"http://commons.wikimedia.org/wiki/Special:FilePath/Flag%20of%20the%20United%20States.svg","itemLabel":"Denver International Airport","longitude":"-104.67305","latitude":"39.8616666","MAX_patronage":"64494613"},{"paysLabel":"Thailand","countryFlag":"http://commons.wikimedia.org/wiki/Special:FilePath/Flag%20of%20Thailand.svg","itemLabel":"Suvarnabhumi Airport","longitude":"100.747222","latitude":"13.681111","MAX_patronage":"63378923"},{"paysLabel":"United States of America","countryFlag":"http://commons.wikimedia.org/wiki/Special:FilePath/Flag%20of%20the%20United%20States.svg","itemLabel":"John F. Kennedy International Airport","longitude":"-73.778889","latitude":"40.639722","MAX_patronage":"61909148"},{"paysLabel":"Malaysia","countryFlag":"http://commons.wikimedia.org/wiki/Special:FilePath/Flag%20of%20Malaysia.svg","itemLabel":"Kuala Lumpur International Airport","longitude":"101.709722","latitude":"2.745556","MAX_patronage":"59988409"},{"paysLabel":"Spain","countryFlag":"http://commons.wikimedia.org/wiki/Special:FilePath/Flag%20of%20Spain.svg","itemLabel":"Adolfo Suarez Madrid-Barajas","longitude":"-3.5608333","latitude":"40.4722222","MAX_patronage":"57891340"},{"paysLabel":"United States of America","countryFlag":"http://commons.wikimedia.org/wiki/Special:FilePath/Flag%20of%20the%20United%20States.svg","itemLabel":"San Francisco International Airport","longitude":"-122.375","latitude":"37.6188888","MAX_patronage":"57793313"},{"paysLabel":"People's Republic of China","countryFlag":"http://commons.wikimedia.org/wiki/Special:FilePath/Flag%20of%20the%20People%27s%20Republic%20of%20China.svg","itemLabel":"Chengdu Shuangliu International Airport","longitude":"103.948333","latitude":"30.58","MAX_patronage":"52950529"},{"paysLabel":"Spain","countryFlag":"http://commons.wikimedia.org/wiki/Special:FilePath/Flag%20of%20Spain.svg","itemLabel":"Josep Tarradellas Airport Barcelona-El Prat","longitude":"2.078333","latitude":"41.296944","MAX_patronage":"50172457"},{"paysLabel":"United States of America","countryFlag":"http://commons.wikimedia.org/wiki/Special:FilePath/Flag%20of%20the%20United%20States.svg","itemLabel":"Seattle–Tacoma International Airport","longitude":"-122.30944","latitude":"47.448889","MAX_patronage":"49849520"},{"paysLabel":"United States of America","countryFlag":"http://commons.wikimedia.org/wiki/Special:FilePath/Flag%20of%20the%20United%20States.svg","itemLabel":"McCarran International Airport","longitude":"-115.15222","latitude":"36.08","MAX_patronage":"49716584"},{"paysLabel":"Canada","countryFlag":"http://commons.wikimedia.org/wiki/Special:FilePath/Flag%20of%20Canada%20%28Pantone%29.svg","itemLabel":"Toronto Pearson International Airport","longitude":"-79.6306","latitude":"43.6767","MAX_patronage":"49507418"},{"paysLabel":"People's Republic of China","countryFlag":"http://commons.wikimedia.org/wiki/Special:FilePath/Flag%20of%20the%20People%27s%20Republic%20of%20China.svg","itemLabel":"Shenzhen Bao'an International Airport","longitude":"113.810833","latitude":"22.6394444","MAX_patronage":"49348950"},{"paysLabel":"United States of America","countryFlag":"http://commons.wikimedia.org/wiki/Special:FilePath/Flag%20of%20the%20United%20States.svg","itemLabel":"Orlando International Airport","longitude":"-81.308889","latitude":"28.429444","MAX_patronage":"47696627"},{"paysLabel":"People's Republic of China","countryFlag":"http://commons.wikimedia.org/wiki/Special:FilePath/Flag%20of%20the%20People%27s%20Republic%20of%20China.svg","itemLabel":"Kunming Changshui International Airport","longitude":"102.929166","latitude":"25.1019444","MAX_patronage":"47088140"},{"paysLabel":"Taiwan","countryFlag":"http://commons.wikimedia.org/wiki/Special:FilePath/Flag%20of%20the%20Republic%20of%20China.svg","itemLabel":"Taoyuan International Airport","longitude":"121.223888","latitude":"25.0763888","MAX_patronage":"46535180"},{"paysLabel":"United States of America","countryFlag":"http://commons.wikimedia.org/wiki/Special:FilePath/Flag%20of%20the%20United%20States.svg","itemLabel":"Charlotte/Douglas International Airport","longitude":"-80.943055","latitude":"35.2138888","MAX_patronage":"46444380"},{"paysLabel":"Germany","countryFlag":"http://commons.wikimedia.org/wiki/Special:FilePath/Flag%20of%20Germany.svg","itemLabel":"Munich Airport","longitude":"11.7861111","latitude":"48.3538888","MAX_patronage":"46253623"},{"paysLabel":"United Kingdom","countryFlag":"http://commons.wikimedia.org/wiki/Special:FilePath/Flag%20of%20the%20United%20Kingdom.svg","itemLabel":"Gatwick Airport","longitude":"-0.1902777","latitude":"51.1472222","MAX_patronage":"46081327"},{"paysLabel":"United States of America","countryFlag":"http://commons.wikimedia.org/wiki/Special:FilePath/Flag%20of%20the%20United%20States.svg","itemLabel":"Newark Liberty International Airport","longitude":"-74.1686","latitude":"40.6925","MAX_patronage":"46065175"},{"paysLabel":"Philippines","countryFlag":"http://commons.wikimedia.org/wiki/Special:FilePath/Flag%20of%20the%20Philippines.svg","itemLabel":"Ninoy Aquino International Airport","longitude":"121.019444","latitude":"14.508611","MAX_patronage":"45054308"},{"paysLabel":"United States of America","countryFlag":"http://commons.wikimedia.org/wiki/Special:FilePath/Flag%20of%20the%20United%20States.svg","itemLabel":"Miami International Airport","longitude":"-80.290555","latitude":"25.7933333","MAX_patronage":"45044312"},{"paysLabel":"United States of America","countryFlag":"http://commons.wikimedia.org/wiki/Special:FilePath/Flag%20of%20the%20United%20States.svg","itemLabel":"Phoenix Sky Harbor International Airport","longitude":"-112.01166","latitude":"33.4341666","MAX_patronage":"44943686"},{"paysLabel":"People's Republic of China","countryFlag":"http://commons.wikimedia.org/wiki/Special:FilePath/Flag%20of%20the%20People%27s%20Republic%20of%20China.svg","itemLabel":"Xi'an Xianyang International Airport","longitude":"108.751388","latitude":"34.4469444","MAX_patronage":"44653311"},{"paysLabel":"United States of America","countryFlag":"http://commons.wikimedia.org/wiki/Special:FilePath/Flag%20of%20the%20United%20States.svg","itemLabel":"George Bush Intercontinental Airport","longitude":"-95.341388","latitude":"29.9844444","MAX_patronage":"43807539"},{"paysLabel":"People's Republic of China","countryFlag":"http://commons.wikimedia.org/wiki/Special:FilePath/Flag%20of%20the%20People%27s%20Republic%20of%20China.svg","itemLabel":"Shanghai Hongqiao International Airport","longitude":"121.336389","latitude":"31.198056","MAX_patronage":"43628004"},{"paysLabel":"Italy","countryFlag":"http://commons.wikimedia.org/wiki/Special:FilePath/Flag%20of%20Italy.svg","itemLabel":"Leonardo da Vinci–Fiumicino Airport","longitude":"12.2388888","latitude":"41.8002777","MAX_patronage":"42995119"},{"paysLabel":"People's Republic of China","countryFlag":"http://commons.wikimedia.org/wiki/Special:FilePath/Flag%20of%20the%20People%27s%20Republic%20of%20China.svg","itemLabel":"Chongqing Jiangbei International Airport","longitude":"106.641666","latitude":"29.7191666","MAX_patronage":"41595887"},{"paysLabel":"Saudi Arabia","countryFlag":"http://commons.wikimedia.org/wiki/Special:FilePath/Flag%20of%20Saudi%20Arabia.svg","itemLabel":"King Abdulaziz International Airport","longitude":"39.1555555","latitude":"21.6811111","MAX_patronage":"41200000"},{"paysLabel":"United States of America","countryFlag":"http://commons.wikimedia.org/wiki/Special:FilePath/Flag%20of%20the%20United%20States.svg","itemLabel":"Logan International Airport","longitude":"-71.006389","latitude":"42.363056","MAX_patronage":"40941925"},{"paysLabel":"Thailand","countryFlag":"http://commons.wikimedia.org/wiki/Special:FilePath/Flag%20of%20Thailand.svg","itemLabel":"Don Mueang International Airport","longitude":"100.606666","latitude":"13.9125","MAX_patronage":"40758148"},{"paysLabel":"Vietnam","countryFlag":"http://commons.wikimedia.org/wiki/Special:FilePath/Flag%20of%20Vietnam.svg","itemLabel":"Tan Son Nhat International Airport","longitude":"106.651944","latitude":"10.8188888","MAX_patronage":"38500000"},{"paysLabel":"People's Republic of China","countryFlag":"http://commons.wikimedia.org/wiki/Special:FilePath/Flag%20of%20the%20People%27s%20Republic%20of%20China.svg","itemLabel":"Hangzhou Xiaoshan International Airport","longitude":"120.434444","latitude":"30.2294444","MAX_patronage":"38241630"},{"paysLabel":"United States of America","countryFlag":"http://commons.wikimedia.org/wiki/Special:FilePath/Flag%20of%20the%20United%20States.svg","itemLabel":"Minneapolis–Saint Paul International Airport","longitude":"-93.221666","latitude":"44.8819444","MAX_patronage":"38037381"},{"paysLabel":"United States of America","countryFlag":"http://commons.wikimedia.org/wiki/Special:FilePath/Flag%20of%20the%20United%20States.svg","itemLabel":"Detroit Metropolitan Wayne County Airport","longitude":"-83.353333","latitude":"42.2125","MAX_patronage":"35236676"},{"paysLabel":"Qatar","countryFlag":"http://commons.wikimedia.org/wiki/Special:FilePath/Flag%20of%20Qatar.svg","itemLabel":"Hamad International Airport","longitude":"51.6080555","latitude":"25.2730555","MAX_patronage":"34500000"},{"paysLabel":"Turkey","countryFlag":"http://commons.wikimedia.org/wiki/Special:FilePath/Flag%20of%20Turkey.svg","itemLabel":"Istanbul Sabiha Gökçen International Airport","longitude":"29.3091666","latitude":"40.8983333","MAX_patronage":"34136516"},{"paysLabel":"Colombia","countryFlag":"http://commons.wikimedia.org/wiki/Special:FilePath/Flag%20of%20Colombia.svg","itemLabel":"El Dorado International Airport","longitude":"-74.146944","latitude":"4.70138888","MAX_patronage":"32716468"},{"paysLabel":"United States of America","countryFlag":"http://commons.wikimedia.org/wiki/Special:FilePath/Flag%20of%20the%20United%20States.svg","itemLabel":"Philadelphia International Airport","longitude":"-75.241111","latitude":"39.871944","MAX_patronage":"31691596"},{"paysLabel":"Turkey","countryFlag":"http://commons.wikimedia.org/wiki/Special:FilePath/Flag%20of%20Turkey.svg","itemLabel":"Antalya Airport","longitude":"30.7927777","latitude":"36.9002777","MAX_patronage":"31566217"},{"paysLabel":"Ireland","countryFlag":"http://commons.wikimedia.org/wiki/Special:FilePath/Flag%20of%20Ireland.svg","itemLabel":"Dublin Airport","longitude":"-6.27","latitude":"53.4213888","MAX_patronage":"31495604"},{"paysLabel":"United States of America","countryFlag":"http://commons.wikimedia.org/wiki/Special:FilePath/Flag%20of%20the%20United%20States.svg","itemLabel":"LaGuardia Airport","longitude":"-73.872611","latitude":"40.77725","MAX_patronage":"30094074"},{"paysLabel":"South Korea","countryFlag":"http://commons.wikimedia.org/wiki/Special:FilePath/Flag%20of%20South%20Korea.svg","itemLabel":"Jeju International Airport","longitude":"126.492777","latitude":"33.5122222","MAX_patronage":"29455305"},{"paysLabel":"Spain","countryFlag":"http://commons.wikimedia.org/wiki/Special:FilePath/Flag%20of%20Spain.svg","itemLabel":"Palma de Mallorca Airport","longitude":"2.73880833","latitude":"39.551675","MAX_patronage":"29081787"},{"paysLabel":"Japan","countryFlag":"http://commons.wikimedia.org/wiki/Special:FilePath/Flag%20of%20Japan.svg","itemLabel":"Kansai International Airport","longitude":"135.232777","latitude":"34.4341666","MAX_patronage":"28961000"},{"paysLabel":"People's Republic of China","countryFlag":"http://commons.wikimedia.org/wiki/Special:FilePath/Flag%20of%20the%20People%27s%20Republic%20of%20China.svg","itemLabel":"Nanjing Lukou International Airport","longitude":"118.861944","latitude":"31.7422222","MAX_patronage":"28581546"},{"paysLabel":"United Kingdom","countryFlag":"http://commons.wikimedia.org/wiki/Special:FilePath/Flag%20of%20the%20United%20Kingdom.svg","itemLabel":"Manchester Airport","longitude":"-2.275","latitude":"53.353889","MAX_patronage":"28254970"},{"paysLabel":"United Kingdom","countryFlag":"http://commons.wikimedia.org/wiki/Special:FilePath/Flag%20of%20the%20United%20Kingdom.svg","itemLabel":"London Stansted Airport","longitude":"0.235","latitude":"51.885","MAX_patronage":"27995121"},{"paysLabel":"Saudi Arabia","countryFlag":"http://commons.wikimedia.org/wiki/Special:FilePath/Flag%20of%20Saudi%20Arabia.svg","itemLabel":"King Khalid International Airport","longitude":"46.7034654","latitude":"24.9602113","MAX_patronage":"27900000"},{"paysLabel":"People's Republic of China","countryFlag":"http://commons.wikimedia.org/wiki/Special:FilePath/Flag%20of%20the%20People%27s%20Republic%20of%20China.svg","itemLabel":"Zhengzhou Xinzheng International Airport","longitude":"113.840833","latitude":"34.5197222","MAX_patronage":"27334730"},{"paysLabel":"United States of America","countryFlag":"http://commons.wikimedia.org/wiki/Special:FilePath/Flag%20of%20the%20United%20States.svg","itemLabel":"Baltimore/Washington International Thurgood Marshall Airport","longitude":"-76.667541","latitude":"39.1782209","MAX_patronage":"27145831"},{"paysLabel":"Austria","countryFlag":"http://commons.wikimedia.org/wiki/Special:FilePath/Flag%20of%20Austria.svg","itemLabel":"Wien-Schwechat Airport","longitude":"16.569722","latitude":"48.110278","MAX_patronage":"27037292"},{"paysLabel":"Vietnam","countryFlag":"http://commons.wikimedia.org/wiki/Special:FilePath/Flag%20of%20Vietnam.svg","itemLabel":"Noi Bai International Airport","longitude":"105.807222","latitude":"21.2211111","MAX_patronage":"27000000"},{"paysLabel":"People's Republic of China","countryFlag":"http://commons.wikimedia.org/wiki/Special:FilePath/Flag%20of%20the%20People%27s%20Republic%20of%20China.svg","itemLabel":"Xiamen Gaoqi International Airport","longitude":"118.126648","latitude":"24.5331733","MAX_patronage":"26553438"},{"paysLabel":"Canada","countryFlag":"http://commons.wikimedia.org/wiki/Special:FilePath/Flag%20of%20Canada%20%28Pantone%29.svg","itemLabel":"Vancouver International Airport","longitude":"-123.184","latitude":"49.1947","MAX_patronage":"25936907"},{"paysLabel":"Indonesia","countryFlag":"http://commons.wikimedia.org/wiki/Special:FilePath/Flag%20of%20Indonesia.svg","itemLabel":"Ngurah Rai International Airport","longitude":"115.1675","latitude":"-8.7480555","MAX_patronage":"25382335"},{"paysLabel":"People's Republic of China","countryFlag":"http://commons.wikimedia.org/wiki/Special:FilePath/Flag%20of%20the%20People%27s%20Republic%20of%20China.svg","itemLabel":"Changsha Huanghua International Airport","longitude":"113.220833","latitude":"28.1966666","MAX_patronage":"25266251"},{"paysLabel":"Italy","countryFlag":"http://commons.wikimedia.org/wiki/Special:FilePath/Flag%20of%20Italy.svg","itemLabel":"Milan–Malpensa Airport","longitude":"8.72305555","latitude":"45.63","MAX_patronage":"24725490"},{"paysLabel":"South Korea","countryFlag":"http://commons.wikimedia.org/wiki/Special:FilePath/Flag%20of%20South%20Korea.svg","itemLabel":"Gimpo International Airport","longitude":"126.7975","latitude":"37.5569444","MAX_patronage":"24602588"},{"paysLabel":"People's Republic of China","countryFlag":"http://commons.wikimedia.org/wiki/Special:FilePath/Flag%20of%20the%20People%27s%20Republic%20of%20China.svg","itemLabel":"Qingdao Liuting International Airport","longitude":"120.374444","latitude":"36.2661111","MAX_patronage":"24535738"},{"paysLabel":"People's Republic of China","countryFlag":"http://commons.wikimedia.org/wiki/Special:FilePath/Flag%20of%20the%20People%27s%20Republic%20of%20China.svg","itemLabel":"Wuhan Tianhe International Airport","longitude":"114.208055","latitude":"30.7836111","MAX_patronage":"24500356"},{"paysLabel":"United Arab Emirates","countryFlag":"http://commons.wikimedia.org/wiki/Special:FilePath/Flag%20of%20the%20United%20Arab%20Emirates.svg","itemLabel":"Abu Dhabi International Airport","longitude":"54.6511111","latitude":"24.4330555","MAX_patronage":"24482119"},{"paysLabel":"Germany","countryFlag":"http://commons.wikimedia.org/wiki/Special:FilePath/Flag%20of%20Germany.svg","itemLabel":"Düsseldorf International Airport","longitude":"6.76666666","latitude":"51.2894444","MAX_patronage":"24283967"},{"paysLabel":"United States of America","countryFlag":"http://commons.wikimedia.org/wiki/Special:FilePath/Flag%20of%20the%20United%20States.svg","itemLabel":"San Diego International Airport","longitude":"-117.18972","latitude":"32.7336111","MAX_patronage":"24238300"},{"paysLabel":"Greece","countryFlag":"http://commons.wikimedia.org/wiki/Special:FilePath/Flag%20of%20Greece.svg","itemLabel":"Athens International Airport","longitude":"23.9444444","latitude":"37.9363888","MAX_patronage":"24135736"},{"paysLabel":"People's Republic of China","countryFlag":"http://commons.wikimedia.org/wiki/Special:FilePath/Flag%20of%20the%20People%27s%20Republic%20of%20China.svg","itemLabel":"Haikou Meilan International Airport","longitude":"110.458888","latitude":"19.9347222","MAX_patronage":"24123582"},{"paysLabel":"United States of America","countryFlag":"http://commons.wikimedia.org/wiki/Special:FilePath/Flag%20of%20the%20United%20States.svg","itemLabel":"Washington Dulles International Airport","longitude":"-77.455833","latitude":"38.944444","MAX_patronage":"24060709"},{"paysLabel":"Japan","countryFlag":"http://commons.wikimedia.org/wiki/Special:FilePath/Flag%20of%20Japan.svg","itemLabel":"Fukuoka Airport","longitude":"130.451666","latitude":"33.5844444","MAX_patronage":"23979222"},{"paysLabel":"Belgium","countryFlag":"http://commons.wikimedia.org/wiki/Special:FilePath/Flag%20of%20Belgium%20%28civil%29.svg","itemLabel":"Brussels Airport","longitude":"4.48444444","latitude":"50.9013888","MAX_patronage":"23866105"},{"paysLabel":"People's Republic of China","countryFlag":"http://commons.wikimedia.org/wiki/Special:FilePath/Flag%20of%20the%20People%27s%20Republic%20of%20China.svg","itemLabel":"Tianjin Binhai International Airport","longitude":"117.346111","latitude":"39.1244444","MAX_patronage":"23591412"},{"paysLabel":"United States of America","countryFlag":"http://commons.wikimedia.org/wiki/Special:FilePath/Flag%20of%20the%20United%20States.svg","itemLabel":"Ronald Reagan Washington National Airport","longitude":"-77.041961","latitude":"38.8540082","MAX_patronage":"23464618"},{"paysLabel":"Chile","countryFlag":"http://commons.wikimedia.org/wiki/Special:FilePath/Flag%20of%20Chile.svg","itemLabel":"Arturo Merino Benítez International Airport","longitude":"-70.785555","latitude":"-33.392777","MAX_patronage":"23303000"},{"paysLabel":"People's Republic of China","countryFlag":"http://commons.wikimedia.org/wiki/Special:FilePath/Flag%20of%20the%20People%27s%20Republic%20of%20China.svg","itemLabel":"Ürümqi Diwopu International Airport","longitude":"87.4741666","latitude":"43.9072222","MAX_patronage":"23027788"},{"paysLabel":"Israel","countryFlag":"http://commons.wikimedia.org/wiki/Special:FilePath/Flag%20of%20Israel.svg","itemLabel":"Ben Gurion Airport","longitude":"34.8827777","latitude":"32.0094444","MAX_patronage":"22949676"},{"paysLabel":"United States of America","countryFlag":"http://commons.wikimedia.org/wiki/Special:FilePath/Flag%20of%20the%20United%20States.svg","itemLabel":"Chicago Midway International Airport","longitude":"-87.7525","latitude":"41.7861111","MAX_patronage":"22027737"},{"paysLabel":"Germany","countryFlag":"http://commons.wikimedia.org/wiki/Special:FilePath/Flag%20of%20Germany.svg","itemLabel":"Berlin Tegel Airport","longitude":"13.287778","latitude":"52.559722","MAX_patronage":"22000430"},{"paysLabel":"United States of America","countryFlag":"http://commons.wikimedia.org/wiki/Special:FilePath/Flag%20of%20the%20United%20States.svg","itemLabel":"Tampa International Airport","longitude":"-82.533333","latitude":"27.9755555","MAX_patronage":"21289390"},{"paysLabel":"Japan","countryFlag":"http://commons.wikimedia.org/wiki/Special:FilePath/Flag%20of%20Japan.svg","itemLabel":"Naha Airport","longitude":"127.645833","latitude":"26.1958333","MAX_patronage":"20973087"},{"paysLabel":"Indonesia","countryFlag":"http://commons.wikimedia.org/wiki/Special:FilePath/Flag%20of%20Indonesia.svg","itemLabel":"Juanda International Airport","longitude":"112.7855","latitude":"-7.38","MAX_patronage":"20951063"},{"paysLabel":"New Zealand","countryFlag":"http://commons.wikimedia.org/wiki/Special:FilePath/Flag%20of%20New%20Zealand.svg","itemLabel":"Auckland Airport","longitude":"174.791666","latitude":"-37.008055","MAX_patronage":"20530048"},{"paysLabel":"People's Republic of China","countryFlag":"http://commons.wikimedia.org/wiki/Special:FilePath/Flag%20of%20the%20People%27s%20Republic%20of%20China.svg","itemLabel":"Harbin Taiping International Airport","longitude":"126.250327","latitude":"45.6234027","MAX_patronage":"20431432"},{"paysLabel":"People's Republic of China","countryFlag":"http://commons.wikimedia.org/wiki/Special:FilePath/Flag%20of%20the%20People%27s%20Republic%20of%20China.svg","itemLabel":"Guiyang Longdongbao International Airport","longitude":"106.800833","latitude":"26.5386111","MAX_patronage":"20094681"},{"paysLabel":"People's Republic of China","countryFlag":"http://commons.wikimedia.org/wiki/Special:FilePath/Flag%20of%20the%20People%27s%20Republic%20of%20China.svg","itemLabel":"Sanya Phoenix International Airport","longitude":"109.412272","latitude":"18.3028972","MAX_patronage":"20039035"},{"paysLabel":"United States of America","countryFlag":"http://commons.wikimedia.org/wiki/Special:FilePath/Flag%20of%20the%20United%20States.svg","itemLabel":"Honolulu International Airport","longitude":"-157.9225","latitude":"21.318611","MAX_patronage":"19950125"},{"paysLabel":"United States of America","countryFlag":"http://commons.wikimedia.org/wiki/Special:FilePath/Flag%20of%20the%20United%20States.svg","itemLabel":"Portland International Airport","longitude":"-122.5975","latitude":"45.5886111","MAX_patronage":"19882788"},{"paysLabel":"Canada","countryFlag":"http://commons.wikimedia.org/wiki/Special:FilePath/Flag%20of%20Canada%20%28Pantone%29.svg","itemLabel":"Montréal–Pierre Elliott Trudeau International Airport","longitude":"-73.7408","latitude":"45.4706","MAX_patronage":"19425488"},{"paysLabel":"People's Republic of China","countryFlag":"http://commons.wikimedia.org/wiki/Special:FilePath/Flag%20of%20the%20People%27s%20Republic%20of%20China.svg","itemLabel":"Shenyang Taoxian International Airport","longitude":"123.483611","latitude":"41.64","MAX_patronage":"19027398"},{"paysLabel":"Spain","countryFlag":"http://commons.wikimedia.org/wiki/Special:FilePath/Flag%20of%20Spain.svg","itemLabel":"Málaga Airport","longitude":"-4.499167","latitude":"36.675","MAX_patronage":"19021704"},{"paysLabel":"People's Republic of China","countryFlag":"http://commons.wikimedia.org/wiki/Special:FilePath/Flag%20of%20the%20People%27s%20Republic%20of%20China.svg","itemLabel":"Dalian Zhoushuizi International Airport","longitude":"121.538333","latitude":"38.9655555","MAX_patronage":"18758171"},{"paysLabel":"Thailand","countryFlag":"http://commons.wikimedia.org/wiki/Special:FilePath/Flag%20of%20Thailand.svg","itemLabel":"Phuket International Airport","longitude":"98.316944","latitude":"8.113333","MAX_patronage":"18221764"},{"paysLabel":"Poland","countryFlag":"http://commons.wikimedia.org/wiki/Special:FilePath/Flag%20of%20Poland.svg","itemLabel":"Warsaw Chopin Airport","longitude":"20.9672222","latitude":"52.1658333","MAX_patronage":"17755500"},{"paysLabel":"Egypt","countryFlag":"http://commons.wikimedia.org/wiki/Special:FilePath/Flag%20of%20Egypt.svg","itemLabel":"Cairo International Airport","longitude":"31.4055555","latitude":"30.1219444","MAX_patronage":"17546221"},{"paysLabel":"Canada","countryFlag":"http://commons.wikimedia.org/wiki/Special:FilePath/Flag%20of%20Canada%20%28Pantone%29.svg","itemLabel":"Calgary International Airport","longitude":"-114.02027","latitude":"51.113889","MAX_patronage":"17343402"},{"paysLabel":"Germany","countryFlag":"http://commons.wikimedia.org/wiki/Special:FilePath/Flag%20of%20Germany.svg","itemLabel":"Hamburg Airport","longitude":"9.991111","latitude":"53.630278","MAX_patronage":"17234229"},{"paysLabel":"South Korea","countryFlag":"http://commons.wikimedia.org/wiki/Special:FilePath/Flag%20of%20South%20Korea.svg","itemLabel":"Gimhae International Airport","longitude":"128.938055","latitude":"35.1805555","MAX_patronage":"17064613"},{"paysLabel":"Czech Republic","countryFlag":"http://commons.wikimedia.org/wiki/Special:FilePath/Flag%20of%20the%20Czech%20Republic.svg","itemLabel":"Prague Václav Havel Airport","longitude":"14.26","latitude":"50.1008333","MAX_patronage":"16797006"},{"paysLabel":"United Kingdom","countryFlag":"http://commons.wikimedia.org/wiki/Special:FilePath/Flag%20of%20the%20United%20Kingdom.svg","itemLabel":"Luton Airport","longitude":"-0.368333","latitude":"51.874722","MAX_patronage":"16766552"},{"paysLabel":"Turkey","countryFlag":"http://commons.wikimedia.org/wiki/Special:FilePath/Flag%20of%20Turkey.svg","itemLabel":"Esenboğa International Airport","longitude":"32.995","latitude":"40.1280555","MAX_patronage":"16732651"},{"paysLabel":"People's Republic of China","countryFlag":"http://commons.wikimedia.org/wiki/Special:FilePath/Flag%20of%20the%20People%27s%20Republic%20of%20China.svg","itemLabel":"Jinan Yaoqiang International Airport","longitude":"117.216111","latitude":"36.8572222","MAX_patronage":"16611795"},{"paysLabel":"Panama","countryFlag":"http://commons.wikimedia.org/wiki/Special:FilePath/Flag%20of%20Panama.svg","itemLabel":"Tocumen International Airport","longitude":"-79.383611","latitude":"9.07138888","MAX_patronage":"16242679"},{"paysLabel":"Japan","countryFlag":"http://commons.wikimedia.org/wiki/Special:FilePath/Flag%20of%20Japan.svg","itemLabel":"Osaka International Airport","longitude":"135.438222","latitude":"34.7855277","MAX_patronage":"16187000"},{"paysLabel":"United States of America","countryFlag":"http://commons.wikimedia.org/wiki/Special:FilePath/Flag%20of%20the%20United%20States.svg","itemLabel":"Dallas Love Field","longitude":"-96.851666","latitude":"32.8472222","MAX_patronage":"15562738"},{"paysLabel":"People's Republic of China","countryFlag":"http://commons.wikimedia.org/wiki/Special:FilePath/Flag%20of%20the%20People%27s%20Republic%20of%20China.svg","itemLabel":"Nanning Wuxu International Airport","longitude":"108.172441","latitude":"22.6082666","MAX_patronage":"15091614"},{"paysLabel":"Hungary","countryFlag":"http://commons.wikimedia.org/wiki/Special:FilePath/Flag%20of%20Hungary.svg","itemLabel":"Budapest Ferenc Liszt International Airport","longitude":"19.2619444","latitude":"47.4394444","MAX_patronage":"14867491"},{"paysLabel":"People's Republic of China","countryFlag":"http://commons.wikimedia.org/wiki/Special:FilePath/Flag%20of%20the%20People%27s%20Republic%20of%20China.svg","itemLabel":"Fuzhou Changle International Airport","longitude":"119.663333","latitude":"25.935","MAX_patronage":"14393532"},{"paysLabel":"United Kingdom","countryFlag":"http://commons.wikimedia.org/wiki/Special:FilePath/Flag%20of%20the%20United%20Kingdom.svg","itemLabel":"Edinburgh Airport","longitude":"-3.3725","latitude":"55.95","MAX_patronage":"14291811"},{"paysLabel":"Spain","countryFlag":"http://commons.wikimedia.org/wiki/Special:FilePath/Flag%20of%20Spain.svg","itemLabel":"Alicante Airport","longitude":"-0.5580555","latitude":"38.2822222","MAX_patronage":"13981320"},{"paysLabel":"United States of America","countryFlag":"http://commons.wikimedia.org/wiki/Special:FilePath/Flag%20of%20the%20United%20States.svg","itemLabel":"Lambert–St. Louis International Airport","longitude":"-90.361388","latitude":"38.7472222","MAX_patronage":"13959126"},{"paysLabel":"People's Republic of China","countryFlag":"http://commons.wikimedia.org/wiki/Special:FilePath/Flag%20of%20the%20People%27s%20Republic%20of%20China.svg","itemLabel":"Nanchang Changbei International Airport","longitude":"115.9","latitude":"28.865","MAX_patronage":"13901623"},{"paysLabel":"People's Republic of China","countryFlag":"http://commons.wikimedia.org/wiki/Special:FilePath/Flag%20of%20the%20People%27s%20Republic%20of%20China.svg","itemLabel":"Lanzhou Zhongchuan International Airport","longitude":"103.620555","latitude":"36.5120835","MAX_patronage":"13858151"},{"paysLabel":"Romania","countryFlag":"http://commons.wikimedia.org/wiki/Special:FilePath/Flag%20of%20Romania.svg","itemLabel":"Henri Coandă International Airport","longitude":"26.085","latitude":"44.5711111","MAX_patronage":"13824830"},{"paysLabel":"People's Republic of China","countryFlag":"http://commons.wikimedia.org/wiki/Special:FilePath/Flag%20of%20the%20People%27s%20Republic%20of%20China.svg","itemLabel":"Taiyuan Wusu International Airport","longitude":"112.628333","latitude":"37.7469444","MAX_patronage":"13588423"},{"paysLabel":"Spain","countryFlag":"http://commons.wikimedia.org/wiki/Special:FilePath/Flag%20of%20Spain.svg","itemLabel":"Gran Canaria Airport","longitude":"-15.386666","latitude":"27.9319444","MAX_patronage":"13573242"},{"paysLabel":"Indonesia","countryFlag":"http://commons.wikimedia.org/wiki/Special:FilePath/Flag%20of%20Indonesia.svg","itemLabel":"Sultan Hasanuddin International Airport","longitude":"119.554166","latitude":"-5.0616666","MAX_patronage":"13537770"},{"paysLabel":"Turkey","countryFlag":"http://commons.wikimedia.org/wiki/Special:FilePath/Flag%20of%20Turkey.svg","itemLabel":"Izmir Adnan Menderes Airport","longitude":"27.155","latitude":"38.2891666","MAX_patronage":"13425547"},{"paysLabel":"Argentina","countryFlag":"http://commons.wikimedia.org/wiki/Special:FilePath/Flag%20of%20Argentina.svg","itemLabel":"Aeroparque Jorge Newbery","longitude":"-58.416388","latitude":"-34.558888","MAX_patronage":"13363061"},{"paysLabel":"Vietnam","countryFlag":"http://commons.wikimedia.org/wiki/Special:FilePath/Flag%20of%20Vietnam.svg","itemLabel":"Da Nang International Airport","longitude":"108.199444","latitude":"16.0438888","MAX_patronage":"13229663"},{"paysLabel":"United States of America","countryFlag":"http://commons.wikimedia.org/wiki/Special:FilePath/Flag%20of%20the%20United%20States.svg","itemLabel":"Nashville International Airport","longitude":"-86.681944","latitude":"36.1266666","MAX_patronage":"12979803"},{"paysLabel":"People's Republic of China","countryFlag":"http://commons.wikimedia.org/wiki/Special:FilePath/Flag%20of%20the%20People%27s%20Republic%20of%20China.svg","itemLabel":"Changchun Longjia International Airport","longitude":"125.443078","latitude":"43.9508955","MAX_patronage":"12969503"},{"paysLabel":"Germany","countryFlag":"http://commons.wikimedia.org/wiki/Special:FilePath/Flag%20of%20Germany.svg","itemLabel":"Cologne Bonn Airport","longitude":"7.14277777","latitude":"50.8658333","MAX_patronage":"12957828"},{"paysLabel":"Italy","countryFlag":"http://commons.wikimedia.org/wiki/Special:FilePath/Flag%20of%20Italy.svg","itemLabel":"Il Caravaggio International Airport","longitude":"9.6995","latitude":"45.6655","MAX_patronage":"12938572"},{"paysLabel":"United States of America","countryFlag":"http://commons.wikimedia.org/wiki/Special:FilePath/Flag%20of%20the%20United%20States.svg","itemLabel":"William P. Hobby Airport","longitude":"-95.277344","latitude":"29.6502327","MAX_patronage":"12909075"},{"paysLabel":"Germany","countryFlag":"http://commons.wikimedia.org/wiki/Special:FilePath/Flag%20of%20Germany.svg","itemLabel":"Berlin Schönefeld Airport","longitude":"13.520556","latitude":"52.378611","MAX_patronage":"12725937"},{"paysLabel":"Ukraine","countryFlag":"http://commons.wikimedia.org/wiki/Special:FilePath/Flag%20of%20Ukraine.svg","itemLabel":"Boryspil International Airport","longitude":"30.8933333","latitude":"50.3447222","MAX_patronage":"12603271"},{"paysLabel":"United Kingdom","countryFlag":"http://commons.wikimedia.org/wiki/Special:FilePath/Flag%20of%20the%20United%20Kingdom.svg","itemLabel":"Birmingham Airport","longitude":"-1.7480555","latitude":"52.4538888","MAX_patronage":"12454642"},{"paysLabel":"United States of America","countryFlag":"http://commons.wikimedia.org/wiki/Special:FilePath/Flag%20of%20the%20United%20States.svg","itemLabel":"Austin-Bergstrom International Airport","longitude":"-97.67","latitude":"30.1944444","MAX_patronage":"12436849"},{"paysLabel":"Japan","countryFlag":"http://commons.wikimedia.org/wiki/Special:FilePath/Flag%20of%20Japan.svg","itemLabel":"Chubu Centrair International Airport","longitude":"136.805277","latitude":"34.8583333","MAX_patronage":"12356882"},{"paysLabel":"People's Republic of China","countryFlag":"http://commons.wikimedia.org/wiki/Special:FilePath/Flag%20of%20the%20People%27s%20Republic%20of%20China.svg","itemLabel":"Hohhot Baita International Airport","longitude":"111.822884","latitude":"40.8523776","MAX_patronage":"12159175"},{"paysLabel":"Ethiopia","countryFlag":"http://commons.wikimedia.org/wiki/Special:FilePath/Flag%20of%20Ethiopia.svg","itemLabel":"Addis Ababa Bole International Airport","longitude":"38.7994444","latitude":"8.97777777","MAX_patronage":"12143938"},{"paysLabel":"United States of America","countryFlag":"http://commons.wikimedia.org/wiki/Special:FilePath/Flag%20of%20the%20United%20States.svg","itemLabel":"Oakland International Airport","longitude":"-122.22083","latitude":"37.7213888","MAX_patronage":"12070967"},{"paysLabel":"Germany","countryFlag":"http://commons.wikimedia.org/wiki/Special:FilePath/Flag%20of%20Germany.svg","itemLabel":"Stuttgart Airport","longitude":"9.22194444","latitude":"48.69","MAX_patronage":"11820612"},{"paysLabel":"People's Republic of China","countryFlag":"http://commons.wikimedia.org/wiki/Special:FilePath/Flag%20of%20the%20People%27s%20Republic%20of%20China.svg","itemLabel":"Ningbo Lishe International Airport","longitude":"121.461944","latitude":"29.8266666","MAX_patronage":"11718416"},{"paysLabel":"Philippines","countryFlag":"http://commons.wikimedia.org/wiki/Special:FilePath/Flag%20of%20the%20Philippines.svg","itemLabel":"Mactan–Cebu International Airport","longitude":"123.983333","latitude":"10.3166666","MAX_patronage":"11377887"},{"paysLabel":"United States of America","countryFlag":"http://commons.wikimedia.org/wiki/Special:FilePath/Flag%20of%20the%20United%20States.svg","itemLabel":"Louis Armstrong New Orleans International Airport","longitude":"-90.258055","latitude":"29.9933333","MAX_patronage":"11365487"},{"paysLabel":"People's Republic of China","countryFlag":"http://commons.wikimedia.org/wiki/Special:FilePath/Flag%20of%20the%20People%27s%20Republic%20of%20China.svg","itemLabel":"Shijiazhuang Zhengding International Airport","longitude":"114.696666","latitude":"38.2808333","MAX_patronage":"11332518"},{"paysLabel":"People's Republic of China","countryFlag":"http://commons.wikimedia.org/wiki/Special:FilePath/Flag%20of%20the%20People%27s%20Republic%20of%20China.svg","itemLabel":"Zhuhai Jinwan Airport","longitude":"113.3749","latitude":"22.0105","MAX_patronage":"11220703"},{"paysLabel":"People's Republic of China","countryFlag":"http://commons.wikimedia.org/wiki/Special:FilePath/Flag%20of%20the%20People%27s%20Republic%20of%20China.svg","itemLabel":"Wenzhou Longwan International Airport","longitude":"120.851944","latitude":"27.9119444","MAX_patronage":"11218701"},{"paysLabel":"Argentina","countryFlag":"http://commons.wikimedia.org/wiki/Special:FilePath/Flag%20of%20Argentina.svg","itemLabel":"Ministro Pistarini International Airport","longitude":"-58.535833","latitude":"-34.822222","MAX_patronage":"11203687"},{"paysLabel":"Italy","countryFlag":"http://commons.wikimedia.org/wiki/Special:FilePath/Flag%20of%20Italy.svg","itemLabel":"Venice Marco Polo Airport","longitude":"12.3519444","latitude":"45.5052777","MAX_patronage":"11184608"},{"paysLabel":"People's Republic of China","countryFlag":"http://commons.wikimedia.org/wiki/Special:FilePath/Flag%20of%20the%20People%27s%20Republic%20of%20China.svg","itemLabel":"Hefei Xinqiao International Airport","longitude":"116.9641","latitude":"31.9894","MAX_patronage":"11110596"},{"paysLabel":"United States of America","countryFlag":"http://commons.wikimedia.org/wiki/Special:FilePath/Flag%20of%20the%20United%20States.svg","itemLabel":"Raleigh–Durham International Airport","longitude":"-78.7875","latitude":"35.8777777","MAX_patronage":"11049143"},{"paysLabel":"Spain","countryFlag":"http://commons.wikimedia.org/wiki/Special:FilePath/Flag%20of%20Spain.svg","itemLabel":"Tenerife South Airport","longitude":"-16.5725","latitude":"28.0444444","MAX_patronage":"11042481"},{"paysLabel":"United States of America","countryFlag":"http://commons.wikimedia.org/wiki/Special:FilePath/Flag%20of%20the%20United%20States.svg","itemLabel":"Kansas City International Airport","longitude":"-94.713888","latitude":"39.2975","MAX_patronage":"11041767"},{"paysLabel":"Thailand","countryFlag":"http://commons.wikimedia.org/wiki/Special:FilePath/Flag%20of%20Thailand.svg","itemLabel":"Chiang Mai International Airport","longitude":"98.9625","latitude":"18.7666666","MAX_patronage":"10989402"},{"paysLabel":"United States of America","countryFlag":"http://commons.wikimedia.org/wiki/Special:FilePath/Flag%20of%20the%20United%20States.svg","itemLabel":"San Jose International Airport","longitude":"-121.92916","latitude":"37.3627777","MAX_patronage":"10796725"},{"paysLabel":"United States of America","countryFlag":"http://commons.wikimedia.org/wiki/Special:FilePath/Flag%20of%20the%20United%20States.svg","itemLabel":"John Wayne Airport","longitude":"-117.86833","latitude":"33.6755555","MAX_patronage":"10664038"},{"paysLabel":"Iran","countryFlag":"http://commons.wikimedia.org/wiki/Special:FilePath/Flag%20of%20Iran.svg","itemLabel":"Mashhad International Airport","longitude":"59.645","latitude":"36.234167","MAX_patronage":"10459377"},{"paysLabel":"Saudi Arabia","countryFlag":"http://commons.wikimedia.org/wiki/Special:FilePath/Flag%20of%20Saudi%20Arabia.svg","itemLabel":"King Fahd International Airport","longitude":"49.7977777","latitude":"26.4711111","MAX_patronage":"10400000"},{"paysLabel":"United States of America","countryFlag":"http://commons.wikimedia.org/wiki/Special:FilePath/Flag%20of%20the%20United%20States.svg","itemLabel":"Sacramento International Airport","longitude":"-121.59083","latitude":"38.6955555","MAX_patronage":"10118794"},{"paysLabel":"Indonesia","countryFlag":"http://commons.wikimedia.org/wiki/Special:FilePath/Flag%20of%20Indonesia.svg","itemLabel":"Kualanamu International Airport","longitude":"98.8779694","latitude":"3.64174444","MAX_patronage":"10027122"},{"paysLabel":"Italy","countryFlag":"http://commons.wikimedia.org/wiki/Special:FilePath/Flag%20of%20Italy.svg","itemLabel":"Catania-Fontanarossa Airport","longitude":"15.0638888","latitude":"37.4666666","MAX_patronage":"9933318"},{"paysLabel":"Italy","countryFlag":"http://commons.wikimedia.org/wiki/Special:FilePath/Flag%20of%20Italy.svg","itemLabel":"Naples International Airport","longitude":"14.2908333","latitude":"40.8844444","MAX_patronage":"9932029"},{"paysLabel":"Morocco","countryFlag":"http://commons.wikimedia.org/wiki/Special:FilePath/Flag%20of%20Morocco.svg","itemLabel":"Mohammed V International Airport","longitude":"-7.581667","latitude":"33.364167","MAX_patronage":"9748567"},{"paysLabel":"United Kingdom","countryFlag":"http://commons.wikimedia.org/wiki/Special:FilePath/Flag%20of%20the%20United%20Kingdom.svg","itemLabel":"Glasgow Airport","longitude":"-4.4330555","latitude":"55.8719444","MAX_patronage":"9652516"},{"paysLabel":"People's Republic of China","countryFlag":"http://commons.wikimedia.org/wiki/Special:FilePath/Flag%20of%20the%20People%27s%20Republic%20of%20China.svg","itemLabel":"Yantai Penglai International Airport","longitude":"120.982784","latitude":"37.658945","MAX_patronage":"9301746"},{"paysLabel":"Italy","countryFlag":"http://commons.wikimedia.org/wiki/Special:FilePath/Flag%20of%20Italy.svg","itemLabel":"Linate Airport","longitude":"9.27833333","latitude":"45.4494444","MAX_patronage":"9233475"},{"paysLabel":"People's Republic of China","countryFlag":"http://commons.wikimedia.org/wiki/Special:FilePath/Flag%20of%20the%20People%27s%20Republic%20of%20China.svg","itemLabel":"Yinchuan Hedong International Airport","longitude":"106.3925","latitude":"38.3216666","MAX_patronage":"8944837"},{"paysLabel":"Bangladesh","countryFlag":"http://commons.wikimedia.org/wiki/Special:FilePath/Flag%20of%20Bangladesh.svg","itemLabel":"Shahjalal International Airport","longitude":"90.40262","latitude":"23.84661","MAX_patronage":"8898000"},{"paysLabel":"Iran","countryFlag":"http://commons.wikimedia.org/wiki/Special:FilePath/Flag%20of%20Iran.svg","itemLabel":"Tehran Imam Khomeini International Airport","longitude":"51.1522222","latitude":"35.4161111","MAX_patronage":"8852232"},{"paysLabel":"Lebanon","countryFlag":"http://commons.wikimedia.org/wiki/Special:FilePath/Flag%20of%20Lebanon.svg","itemLabel":"Beirut–Rafic Hariri International Airport","longitude":"35.4883333","latitude":"33.8211111","MAX_patronage":"8834819"},{"paysLabel":"People's Republic of China","countryFlag":"http://commons.wikimedia.org/wiki/Special:FilePath/Flag%20of%20the%20People%27s%20Republic%20of%20China.svg","itemLabel":"Guilin Liangjiang International Airport","longitude":"110.039166","latitude":"25.2180555","MAX_patronage":"8732176"},{"paysLabel":"United Kingdom","countryFlag":"http://commons.wikimedia.org/wiki/Special:FilePath/Flag%20of%20the%20United%20Kingdom.svg","itemLabel":"Bristol Airport","longitude":"-2.719167","latitude":"51.382778","MAX_patronage":"8696653"},{"paysLabel":"Malaysia","countryFlag":"http://commons.wikimedia.org/wiki/Special:FilePath/Flag%20of%20Malaysia.svg","itemLabel":"Kota Kinabalu International Airport","longitude":"116.053055","latitude":"5.94472222","MAX_patronage":"8622488"},{"paysLabel":"United States of America","countryFlag":"http://commons.wikimedia.org/wiki/Special:FilePath/Flag%20of%20the%20United%20States.svg","itemLabel":"San Antonio International Airport","longitude":"-98.472","latitude":"29.527","MAX_patronage":"8618139"},{"paysLabel":"United States of America","countryFlag":"http://commons.wikimedia.org/wiki/Special:FilePath/Flag%20of%20the%20United%20States.svg","itemLabel":"Southwest Florida International Airport","longitude":"-81.755277","latitude":"26.5361111","MAX_patronage":"8604673"},{"paysLabel":"United States of America","countryFlag":"http://commons.wikimedia.org/wiki/Special:FilePath/Flag%20of%20the%20United%20States.svg","itemLabel":"Indianapolis International Airport","longitude":"-86.294444","latitude":"39.717222","MAX_patronage":"8511959"},{"paysLabel":"Italy","countryFlag":"http://commons.wikimedia.org/wiki/Special:FilePath/Flag%20of%20Italy.svg","itemLabel":"Bologna Guglielmo Marconi Airport","longitude":"11.2886833","latitude":"44.5354222","MAX_patronage":"8506658"},{"paysLabel":"Indonesia","countryFlag":"http://commons.wikimedia.org/wiki/Special:FilePath/Flag%20of%20Indonesia.svg","itemLabel":"Adisucipto International Airport","longitude":"110.431666","latitude":"-7.7880555","MAX_patronage":"8430622"},{"paysLabel":"Jordan","countryFlag":"http://commons.wikimedia.org/wiki/Special:FilePath/Flag%20of%20Jordan.svg","itemLabel":"Queen Alia International Airport","longitude":"35.9933333","latitude":"31.7225","MAX_patronage":"8425026"},{"paysLabel":"United States of America","countryFlag":"http://commons.wikimedia.org/wiki/Special:FilePath/Flag%20of%20the%20United%20States.svg","itemLabel":"Cleveland Hopkins International Airport","longitude":"-81.849722","latitude":"41.4116666","MAX_patronage":"8422676"},{"paysLabel":"United States of America","countryFlag":"http://commons.wikimedia.org/wiki/Special:FilePath/Flag%20of%20the%20United%20States.svg","itemLabel":"Pittsburgh International Airport","longitude":"-80.256693","latitude":"40.495997","MAX_patronage":"8309754"},{"paysLabel":"Vietnam","countryFlag":"http://commons.wikimedia.org/wiki/Special:FilePath/Flag%20of%20Vietnam.svg","itemLabel":"Cam Ranh International Airport","longitude":"109.219444","latitude":"11.9980555","MAX_patronage":"8300000"},{"paysLabel":"Canada","countryFlag":"http://commons.wikimedia.org/wiki/Special:FilePath/Flag%20of%20Canada%20%28Pantone%29.svg","itemLabel":"Edmonton International Airport","longitude":"-113.57944","latitude":"53.31","MAX_patronage":"8254121"},{"paysLabel":"Saudi Arabia","countryFlag":"http://commons.wikimedia.org/wiki/Special:FilePath/Flag%20of%20Saudi%20Arabia.svg","itemLabel":"Prince Mohammad Bin Abdulaziz International Airport","longitude":"39.7058333","latitude":"24.5502777","MAX_patronage":"8144790"},{"paysLabel":"People's Republic of China","countryFlag":"http://commons.wikimedia.org/wiki/Special:FilePath/Flag%20of%20the%20People%27s%20Republic%20of%20China.svg","itemLabel":"Quanzhou Jinjiang Airport","longitude":"118.589444","latitude":"24.7988888","MAX_patronage":"8133369"},{"paysLabel":"Spain","countryFlag":"http://commons.wikimedia.org/wiki/Special:FilePath/Flag%20of%20Spain.svg","itemLabel":"Ibiza Airport","longitude":"1.373117","latitude":"38.872858","MAX_patronage":"8104316"},{"paysLabel":"Greece","countryFlag":"http://commons.wikimedia.org/wiki/Special:FilePath/Flag%20of%20Greece.svg","itemLabel":"Heraklion International Airport","longitude":"25.180278","latitude":"35.339722","MAX_patronage":"8098465"},{"paysLabel":"Colombia","countryFlag":"http://commons.wikimedia.org/wiki/Special:FilePath/Flag%20of%20Colombia.svg","itemLabel":"José María Córdova International Airport","longitude":"-75.426666","latitude":"6.16722222","MAX_patronage":"8036411"},{"paysLabel":"Algeria","countryFlag":"http://commons.wikimedia.org/wiki/Special:FilePath/Flag%20of%20Algeria.svg","itemLabel":"Houari Boumediene Airport","longitude":"3.21694444","latitude":"36.6944444","MAX_patronage":"7823634"},{"paysLabel":"Malaysia","countryFlag":"http://commons.wikimedia.org/wiki/Special:FilePath/Flag%20of%20Malaysia.svg","itemLabel":"Penang International Airport","longitude":"100.276666","latitude":"5.29694444","MAX_patronage":"7790423"},{"paysLabel":"Spain","countryFlag":"http://commons.wikimedia.org/wiki/Special:FilePath/Flag%20of%20Spain.svg","itemLabel":"Valencia Airport","longitude":"-0.4816666","latitude":"39.4894444","MAX_patronage":"7769867"},{"paysLabel":"Indonesia","countryFlag":"http://commons.wikimedia.org/wiki/Special:FilePath/Flag%20of%20Indonesia.svg","itemLabel":"Sultan Aji Muhammad Sulaiman Airport","longitude":"116.894444","latitude":"-1.2683333","MAX_patronage":"7553190"},{"paysLabel":"People's Republic of China","countryFlag":"http://commons.wikimedia.org/wiki/Special:FilePath/Flag%20of%20the%20People%27s%20Republic%20of%20China.svg","itemLabel":"Lijiang Sanyi Airport","longitude":"100.245833","latitude":"26.6791666","MAX_patronage":"7529935"},{"paysLabel":"Mexico","countryFlag":"http://commons.wikimedia.org/wiki/Special:FilePath/Flag%20of%20Mexico.svg","itemLabel":"Mexico City International Airport","longitude":"-99.071944","latitude":"19.436111","MAX_patronage":"7469922"},{"paysLabel":"Belgium","countryFlag":"http://commons.wikimedia.org/wiki/Special:FilePath/Flag%20of%20Belgium%20%28civil%29.svg","itemLabel":"Brussels South Charleroi Airport","longitude":"4.459479","latitude":"50.4616450","MAX_patronage":"7457925"},{"paysLabel":"Indonesia","countryFlag":"http://commons.wikimedia.org/wiki/Special:FilePath/Flag%20of%20Indonesia.svg","itemLabel":"Halim Perdanakusuma Airport","longitude":"106.891111","latitude":"-6.2663888","MAX_patronage":"7400000"},{"paysLabel":"Spain","countryFlag":"http://commons.wikimedia.org/wiki/Special:FilePath/Flag%20of%20Spain.svg","itemLabel":"César Manrique Lanzarote Airport","longitude":"-13.605278","latitude":"28.945556","MAX_patronage":"7327019"},{"paysLabel":"United States of America","countryFlag":"http://commons.wikimedia.org/wiki/Special:FilePath/Flag%20of%20the%20United%20States.svg","itemLabel":"John Glenn Columbus International Airport","longitude":"-82.891944","latitude":"39.9980555","MAX_patronage":"7324180"},{"paysLabel":"Kenya","countryFlag":"http://commons.wikimedia.org/wiki/Special:FilePath/Flag%20of%20Kenya.svg","itemLabel":"Jomo Kenyatta International Airport","longitude":"36.9275","latitude":"-1.319167","MAX_patronage":"7270842"},{"paysLabel":"People's Republic of China","countryFlag":"http://commons.wikimedia.org/wiki/Special:FilePath/Flag%20of%20the%20People%27s%20Republic%20of%20China.svg","itemLabel":"Sunan Shuofang International Airport","longitude":"120.429444","latitude":"31.4944444","MAX_patronage":"7207529"},{"paysLabel":"Nepal","countryFlag":"http://commons.wikimedia.org/wiki/Special:FilePath/Flag%20of%20Nepal.svg","itemLabel":"Tribhuvan International Airport","longitude":"85.3577777","latitude":"27.6972222","MAX_patronage":"7190238"},{"paysLabel":"Japan","countryFlag":"http://commons.wikimedia.org/wiki/Special:FilePath/Flag%20of%20Japan.svg","itemLabel":"Tokyo International Airport","longitude":"139.781111","latitude":"35.5533333","MAX_patronage":"7067805"},{"paysLabel":"Taiwan","countryFlag":"http://commons.wikimedia.org/wiki/Special:FilePath/Flag%20of%20the%20Republic%20of%20China.svg","itemLabel":"Kaohsiung International Airport","longitude":"120.35","latitude":"22.5769444","MAX_patronage":"6973845"},{"paysLabel":"Bulgaria","countryFlag":"http://commons.wikimedia.org/wiki/Special:FilePath/Flag%20of%20Bulgaria.svg","itemLabel":"Sofia Airport","longitude":"23.4083333","latitude":"42.695","MAX_patronage":"6962040"},{"paysLabel":"New Zealand","countryFlag":"http://commons.wikimedia.org/wiki/Special:FilePath/Flag%20of%20New%20Zealand.svg","itemLabel":"Christchurch International Airport","longitude":"172.532222","latitude":"-43.489444","MAX_patronage":"6868948"},{"paysLabel":"United States of America","countryFlag":"http://commons.wikimedia.org/wiki/Special:FilePath/Flag%20of%20the%20United%20States.svg","itemLabel":"Cincinnati/Northern Kentucky International Airport","longitude":"-84.667777","latitude":"39.0488888","MAX_patronage":"6773905"},{"paysLabel":"Poland","countryFlag":"http://commons.wikimedia.org/wiki/Special:FilePath/Flag%20of%20Poland.svg","itemLabel":"John Paul II International Airport Kraków-Balice","longitude":"19.7847222","latitude":"50.0777777","MAX_patronage":"6769369"},{"paysLabel":"United States of America","countryFlag":"http://commons.wikimedia.org/wiki/Special:FilePath/Flag%20of%20the%20United%20States.svg","itemLabel":"Milwaukee Mitchell International Airport","longitude":"-87.896666","latitude":"42.9472222","MAX_patronage":"6757357"},{"paysLabel":"United States of America","countryFlag":"http://commons.wikimedia.org/wiki/Special:FilePath/Flag%20of%20the%20United%20States.svg","itemLabel":"Kahului Airport","longitude":"-156.43055","latitude":"20.8986111","MAX_patronage":"6692710"},{"paysLabel":"Greece","countryFlag":"http://commons.wikimedia.org/wiki/Special:FilePath/Flag%20of%20Greece.svg","itemLabel":"Thessaloniki Airport \"Makedonia\"","longitude":"22.970917","latitude":"40.519722","MAX_patronage":"6689193"},{"paysLabel":"Egypt","countryFlag":"http://commons.wikimedia.org/wiki/Special:FilePath/Flag%20of%20Egypt.svg","itemLabel":"Hurghada International Airport","longitude":"33.799167","latitude":"27.178056","MAX_patronage":"6672681"},{"paysLabel":"Italy","countryFlag":"http://commons.wikimedia.org/wiki/Special:FilePath/Flag%20of%20Italy.svg","itemLabel":"Falcone–Borsellino Airport","longitude":"13.0994444","latitude":"38.1819444","MAX_patronage":"6628558"},{"paysLabel":"People's Republic of China","countryFlag":"http://commons.wikimedia.org/wiki/Special:FilePath/Flag%20of%20the%20People%27s%20Republic%20of%20China.svg","itemLabel":"Beijing Nanyuan Airport","longitude":"116.387778","latitude":"39.7825","MAX_patronage":"6512740"},{"paysLabel":"Indonesia","countryFlag":"http://commons.wikimedia.org/wiki/Special:FilePath/Flag%20of%20Indonesia.svg","itemLabel":"Hang Nadim Airport","longitude":"104.118611","latitude":"1.12083333","MAX_patronage":"6500000"},{"paysLabel":"People's Republic of China","countryFlag":"http://commons.wikimedia.org/wiki/Special:FilePath/Flag%20of%20the%20People%27s%20Republic%20of%20China.svg","itemLabel":"Jieyang Chaoshan Airport","longitude":"116.460444","latitude":"23.5607905","MAX_patronage":"6493930"},{"paysLabel":"Spain","countryFlag":"http://commons.wikimedia.org/wiki/Special:FilePath/Flag%20of%20Spain.svg","itemLabel":"San Pablo Airport","longitude":"-5.898889","latitude":"37.418056","MAX_patronage":"6380465"},{"paysLabel":"People's Republic of China","countryFlag":"http://commons.wikimedia.org/wiki/Special:FilePath/Flag%20of%20the%20People%27s%20Republic%20of%20China.svg","itemLabel":"Xining Caojiabao Airport","longitude":"102.042777","latitude":"36.5275","MAX_patronage":"6339622"},{"paysLabel":"New Zealand","countryFlag":"http://commons.wikimedia.org/wiki/Special:FilePath/Flag%20of%20New%20Zealand.svg","itemLabel":"Wellington International Airport","longitude":"174.805277","latitude":"-41.327222","MAX_patronage":"6337165"},{"paysLabel":"Germany","countryFlag":"http://commons.wikimedia.org/wiki/Special:FilePath/Flag%20of%20Germany.svg","itemLabel":"Hannover Airport","longitude":"9.685","latitude":"52.4608333","MAX_patronage":"6324634"},{"paysLabel":"United Kingdom","countryFlag":"http://commons.wikimedia.org/wiki/Special:FilePath/Flag%20of%20the%20United%20Kingdom.svg","itemLabel":"Belfast International Airport","longitude":"-6.215833","latitude":"54.6575","MAX_patronage":"6286000"},{"paysLabel":"United States of America","countryFlag":"http://commons.wikimedia.org/wiki/Special:FilePath/Flag%20of%20the%20United%20States.svg","itemLabel":"Palm Beach International Airport","longitude":"-80.0956","latitude":"26.6832","MAX_patronage":"6264397"},{"paysLabel":"Cambodia","countryFlag":"http://commons.wikimedia.org/wiki/Special:FilePath/Flag%20of%20Cambodia.svg","itemLabel":"Phnom Penh International Airport","longitude":"104.843888","latitude":"11.5463888","MAX_patronage":"6252568"},{"paysLabel":"Taiwan","countryFlag":"http://commons.wikimedia.org/wiki/Special:FilePath/Flag%20of%20the%20Republic%20of%20China.svg","itemLabel":"Taipei Songshan Airport","longitude":"121.551666","latitude":"25.0694444","MAX_patronage":"6225932"},{"paysLabel":"Spain","countryFlag":"http://commons.wikimedia.org/wiki/Special:FilePath/Flag%20of%20Spain.svg","itemLabel":"Fuerteventura Airport","longitude":"-13.863888","latitude":"28.4527777","MAX_patronage":"6118893"},{"paysLabel":"India","countryFlag":"http://commons.wikimedia.org/wiki/Special:FilePath/Flag%20of%20India.svg","itemLabel":"Indira Gandhi International Airport","longitude":"77.0994444","latitude":"28.5544444","MAX_patronage":"6088348"},{"paysLabel":"United States of America","countryFlag":"http://commons.wikimedia.org/wiki/Special:FilePath/Flag%20of%20the%20United%20States.svg","itemLabel":"Bradley International Airport","longitude":"-72.683333","latitude":"41.9391666","MAX_patronage":"6060943"},{"paysLabel":"Italy","countryFlag":"http://commons.wikimedia.org/wiki/Special:FilePath/Flag%20of%20Italy.svg","itemLabel":"Ciampino–G.B. Pastine International Airport","longitude":"12.5972222","latitude":"41.7994444","MAX_patronage":"5839737"},{"paysLabel":"Tunisia","countryFlag":"http://commons.wikimedia.org/wiki/Special:FilePath/Flag%20of%20Tunisia.svg","itemLabel":"Tunis–Carthage International Airport","longitude":"10.2272222","latitude":"36.8511111","MAX_patronage":"5801324"},{"paysLabel":"Cuba","countryFlag":"http://commons.wikimedia.org/wiki/Special:FilePath/Flag%20of%20Cuba.svg","itemLabel":"José Martí International Airport","longitude":"-82.408888","latitude":"22.9888888","MAX_patronage":"5713859"},{"paysLabel":"Kazakhstan","countryFlag":"http://commons.wikimedia.org/wiki/Special:FilePath/Flag%20of%20Kazakhstan.svg","itemLabel":"Almaty International Airport","longitude":"77.0405555","latitude":"43.3519444","MAX_patronage":"5686926"},{"paysLabel":"Indonesia","countryFlag":"http://commons.wikimedia.org/wiki/Special:FilePath/Flag%20of%20Indonesia.svg","itemLabel":"Achmad Yani International Airport","longitude":"110.374166","latitude":"-6.9713888","MAX_patronage":"5669282"},{"paysLabel":"Serbia","countryFlag":"http://commons.wikimedia.org/wiki/Special:FilePath/Flag%20of%20Serbia.svg","itemLabel":"Belgrade Nikola Tesla Airport","longitude":"20.3069444","latitude":"44.8194444","MAX_patronage":"5641105"},{"paysLabel":"Netherlands","countryFlag":"http://commons.wikimedia.org/wiki/Special:FilePath/Flag%20of%20the%20Netherlands.svg","itemLabel":"Amsterdam Airport Schiphol","longitude":"4.76222472","latitude":"52.3092000","MAX_patronage":"5630314"},{"paysLabel":"Turkey","countryFlag":"http://commons.wikimedia.org/wiki/Special:FilePath/Flag%20of%20Turkey.svg","itemLabel":"Adana Şakirpaşa Airport","longitude":"35.280278","latitude":"36.981944","MAX_patronage":"5626996"},{"paysLabel":"France","countryFlag":"http://commons.wikimedia.org/wiki/Special:FilePath/Flag%20of%20France.svg","itemLabel":"Paris-Charles de Gaulle Airport","longitude":"2.54777777","latitude":"49.0097222","MAX_patronage":"5619431"},{"paysLabel":"Japan","countryFlag":"http://commons.wikimedia.org/wiki/Special:FilePath/Flag%20of%20Japan.svg","itemLabel":"Kagoshima Airport","longitude":"130.716944","latitude":"31.8033333","MAX_patronage":"5617997"},{"paysLabel":"United States of America","countryFlag":"http://commons.wikimedia.org/wiki/Special:FilePath/Flag%20of%20the%20United%20States.svg","itemLabel":"Jacksonville International Airport","longitude":"-81.687777","latitude":"30.4941666","MAX_patronage":"5591878"},{"paysLabel":"Greece","countryFlag":"http://commons.wikimedia.org/wiki/Special:FilePath/Flag%20of%20Greece.svg","itemLabel":"Rhodes International Airport","longitude":"28.086112","latitude":"36.405278","MAX_patronage":"5567748"},{"paysLabel":"Malaysia","countryFlag":"http://commons.wikimedia.org/wiki/Special:FilePath/Flag%20of%20Malaysia.svg","itemLabel":"Kuching International Airport","longitude":"110.346666","latitude":"1.48444444","MAX_patronage":"5564722"},{"paysLabel":"United States of America","countryFlag":"http://commons.wikimedia.org/wiki/Special:FilePath/Flag%20of%20the%20United%20States.svg","itemLabel":"Ted Stevens Anchorage International Airport","longitude":"-149.998","latitude":"61.1742","MAX_patronage":"5511607"},{"paysLabel":"Spain","countryFlag":"http://commons.wikimedia.org/wiki/Special:FilePath/Flag%20of%20Spain.svg","itemLabel":"Tenerife North Airport","longitude":"-16.345913","latitude":"28.4880472","MAX_patronage":"5493994"},{"paysLabel":"Spain","countryFlag":"http://commons.wikimedia.org/wiki/Special:FilePath/Flag%20of%20Spain.svg","itemLabel":"Bilbao Airport","longitude":"-2.910556","latitude":"43.301111","MAX_patronage":"5469453"},{"paysLabel":"Italy","countryFlag":"http://commons.wikimedia.org/wiki/Special:FilePath/Flag%20of%20Italy.svg","itemLabel":"Pisa International Airport","longitude":"10.3925","latitude":"43.6838888","MAX_patronage":"5463090"},{"paysLabel":"Colombia","countryFlag":"http://commons.wikimedia.org/wiki/Special:FilePath/Flag%20of%20Colombia.svg","itemLabel":"Rafael Núñez International Airport","longitude":"-75.513055","latitude":"10.4425","MAX_patronage":"5405362"},{"paysLabel":"United Kingdom","countryFlag":"http://commons.wikimedia.org/wiki/Special:FilePath/Flag%20of%20the%20United%20Kingdom.svg","itemLabel":"Newcastle International Airport","longitude":"-1.6916666","latitude":"55.0375","MAX_patronage":"5332238"},{"paysLabel":"Morocco","countryFlag":"http://commons.wikimedia.org/wiki/Special:FilePath/Flag%20of%20Morocco.svg","itemLabel":"Marrakesh Menara Airport","longitude":"-8.0408333","latitude":"31.6086111","MAX_patronage":"5281602"},{"paysLabel":"United States of America","countryFlag":"http://commons.wikimedia.org/wiki/Special:FilePath/Flag%20of%20the%20United%20States.svg","itemLabel":"Hollywood Burbank Airport","longitude":"-118.35861","latitude":"34.2005555","MAX_patronage":"5269000"},{"paysLabel":"Ecuador","countryFlag":"http://commons.wikimedia.org/wiki/Special:FilePath/Flag%20of%20Ecuador.svg","itemLabel":"Mariscal Sucre International Airport","longitude":"-78.365555","latitude":"-0.1355555","MAX_patronage":"5228072"},{"paysLabel":"Russia","countryFlag":"http://commons.wikimedia.org/wiki/Special:FilePath/Flag%20of%20Russia.svg","itemLabel":"Simferopol International Airport","longitude":"33.9752777","latitude":"45.0522222","MAX_patronage":"5146095"},{"paysLabel":"Indonesia","countryFlag":"http://commons.wikimedia.org/wiki/Special:FilePath/Flag%20of%20Indonesia.svg","itemLabel":"Sultan Mahmud Badaruddin II International Airport","longitude":"104.7","latitude":"-2.9002777","MAX_patronage":"5126298"},{"paysLabel":"United States of America","countryFlag":"http://commons.wikimedia.org/wiki/Special:FilePath/Flag%20of%20the%20United%20States.svg","itemLabel":"LA/Ontario International Airport","longitude":"-117.60111","latitude":"34.0561111","MAX_patronage":"5115894"},{"paysLabel":"Canada","countryFlag":"http://commons.wikimedia.org/wiki/Special:FilePath/Flag%20of%20Canada%20%28Pantone%29.svg","itemLabel":"Ottawa Macdonald-Cartier International Airport","longitude":"-75.6672","latitude":"45.3225","MAX_patronage":"5110801"},{"paysLabel":"Costa Rica","countryFlag":"http://commons.wikimedia.org/wiki/Special:FilePath/Flag%20of%20Costa%20Rica%20%28state%29.svg","itemLabel":"Juan Santamaría International Airport","longitude":"-84.208888","latitude":"9.99388888","MAX_patronage":"5074713"},{"paysLabel":"United Kingdom","countryFlag":"http://commons.wikimedia.org/wiki/Special:FilePath/Flag%20of%20the%20United%20Kingdom.svg","itemLabel":"Liverpool John Lennon Airport","longitude":"-2.8497222","latitude":"53.3336111","MAX_patronage":"5042312"},{"paysLabel":"Italy","countryFlag":"http://commons.wikimedia.org/wiki/Special:FilePath/Flag%20of%20Italy.svg","itemLabel":"Bari Karol Wojtyła Airport","longitude":"16.7605944","latitude":"41.1388555","MAX_patronage":"5030760"},{"paysLabel":"Poland","countryFlag":"http://commons.wikimedia.org/wiki/Special:FilePath/Flag%20of%20Poland.svg","itemLabel":"Gdańsk Lech Wałęsa Airport","longitude":"18.4661111","latitude":"54.3775","MAX_patronage":"4980647"},{"paysLabel":"Lithuania","countryFlag":"http://commons.wikimedia.org/wiki/Special:FilePath/Flag%20of%20Lithuania.svg","itemLabel":"Vilnius Airport","longitude":"25.2877777","latitude":"54.6369444","MAX_patronage":"4922949"},{"paysLabel":"United Kingdom","countryFlag":"http://commons.wikimedia.org/wiki/Special:FilePath/Flag%20of%20the%20United%20Kingdom.svg","itemLabel":"East Midlands Airport","longitude":"-1.3280555","latitude":"52.8311111","MAX_patronage":"4873757"},{"paysLabel":"Colombia","countryFlag":"http://commons.wikimedia.org/wiki/Special:FilePath/Flag%20of%20Colombia.svg","itemLabel":"Alfonso Bonilla Aragón International Airport","longitude":"-76.381388","latitude":"3.54305555","MAX_patronage":"4870311"},{"paysLabel":"Poland","countryFlag":"http://commons.wikimedia.org/wiki/Special:FilePath/Flag%20of%20Poland.svg","itemLabel":"Katowice International Airport","longitude":"19.08","latitude":"50.4741666","MAX_patronage":"4838149"},{"paysLabel":"United Kingdom","countryFlag":"http://commons.wikimedia.org/wiki/Special:FilePath/Flag%20of%20the%20United%20Kingdom.svg","itemLabel":"London City Airport","longitude":"0.055278","latitude":"51.505278","MAX_patronage":"4820292"},{"paysLabel":"Egypt","countryFlag":"http://commons.wikimedia.org/wiki/Special:FilePath/Flag%20of%20Egypt.svg","itemLabel":"Sharm el-Sheikh International Airport","longitude":"34.394722","latitude":"27.977222","MAX_patronage":"4734641"},{"paysLabel":"United States of America","countryFlag":"http://commons.wikimedia.org/wiki/Special:FilePath/Flag%20of%20the%20United%20States.svg","itemLabel":"Buffalo Niagara International Airport","longitude":"-78.732222","latitude":"42.9405555","MAX_patronage":"4618748"},{"paysLabel":"Turkey","countryFlag":"http://commons.wikimedia.org/wiki/Special:FilePath/Flag%20of%20Turkey.svg","itemLabel":"Dalaman Airport","longitude":"28.792778","latitude":"36.714722","MAX_patronage":"4559246"},{"paysLabel":"Jamaica","countryFlag":"http://commons.wikimedia.org/wiki/Special:FilePath/Flag%20of%20Jamaica.svg","itemLabel":"Sangster International Airport","longitude":"-77.913332","latitude":"18.5036110","MAX_patronage":"4537585"},{"paysLabel":"Belarus","countryFlag":"http://commons.wikimedia.org/wiki/Special:FilePath/Flag%20of%20Belarus.svg","itemLabel":"Minsk National Airport","longitude":"28.0325","latitude":"53.8825","MAX_patronage":"4536644"},{"paysLabel":"Saudi Arabia","countryFlag":"http://commons.wikimedia.org/wiki/Special:FilePath/Flag%20of%20Saudi%20Arabia.svg","itemLabel":"Abha Regional Airport","longitude":"42.656625","latitude":"18.2403666","MAX_patronage":"4500000"},{"paysLabel":"Cambodia","countryFlag":"http://commons.wikimedia.org/wiki/Special:FilePath/Flag%20of%20Cambodia.svg","itemLabel":"Siem Reap International Airport","longitude":"103.812777","latitude":"13.4105555","MAX_patronage":"4480000"},{"paysLabel":"Germany","countryFlag":"http://commons.wikimedia.org/wiki/Special:FilePath/Flag%20of%20Germany.svg","itemLabel":"Nuremberg Airport","longitude":"11.0780555","latitude":"49.4986111","MAX_patronage":"4466864"},{"paysLabel":"People's Republic of China","countryFlag":"http://commons.wikimedia.org/wiki/Special:FilePath/Flag%20of%20the%20People%27s%20Republic%20of%20China.svg","itemLabel":"Xishuangbanna Gasa International Airport","longitude":"100.759611","latitude":"21.9739138","MAX_patronage":"4446247"},{"paysLabel":"Azerbaijan","countryFlag":"http://commons.wikimedia.org/wiki/Special:FilePath/Flag%20of%20Azerbaijan.svg","itemLabel":"Heydar Aliyev International Airport","longitude":"50.0466666","latitude":"40.4675","MAX_patronage":"4430000"},{"paysLabel":"India","countryFlag":"http://commons.wikimedia.org/wiki/Special:FilePath/Flag%20of%20India.svg","itemLabel":"Chhatrapati Shivaji International Airport","longitude":"72.8680555","latitude":"19.0886111","MAX_patronage":"4407030"},{"paysLabel":"Italy","countryFlag":"http://commons.wikimedia.org/wiki/Special:FilePath/Flag%20of%20Italy.svg","itemLabel":"Cagliari Elmas Airport","longitude":"9.05428333","latitude":"39.2514694","MAX_patronage":"4370014"},{"paysLabel":"People's Republic of China","countryFlag":"http://commons.wikimedia.org/wiki/Special:FilePath/Flag%20of%20the%20People%27s%20Republic%20of%20China.svg","itemLabel":"Lhasa Gonggar Airport","longitude":"90.9119444","latitude":"29.2977777","MAX_patronage":"4353948"},{"paysLabel":"United States of America","countryFlag":"http://commons.wikimedia.org/wiki/Special:FilePath/Flag%20of%20the%20United%20States.svg","itemLabel":"Eppley Airfield","longitude":"-95.893666","latitude":"41.302","MAX_patronage":"4349486"},{"paysLabel":"Canada","countryFlag":"http://commons.wikimedia.org/wiki/Special:FilePath/Flag%20of%20Canada%20%28Pantone%29.svg","itemLabel":"Halifax Stanfield International Airport","longitude":"-63.5103","latitude":"44.8797","MAX_patronage":"4316079"},{"paysLabel":"Indonesia","countryFlag":"http://commons.wikimedia.org/wiki/Special:FilePath/Flag%20of%20Indonesia.svg","itemLabel":"Husein Sastranegara International Airport","longitude":"107.576388","latitude":"-6.9005555","MAX_patronage":"4310000"},{"paysLabel":"Kazakhstan","countryFlag":"http://commons.wikimedia.org/wiki/Special:FilePath/Flag%20of%20Kazakhstan.svg","itemLabel":"Nursultan Nazarbayev International Airport","longitude":"71.4669444","latitude":"51.0222222","MAX_patronage":"4294145"},{"paysLabel":"Thailand","countryFlag":"http://commons.wikimedia.org/wiki/Special:FilePath/Flag%20of%20Thailand.svg","itemLabel":"Hat Yai International Airport","longitude":"100.392777","latitude":"6.93305555","MAX_patronage":"4256106"},{"paysLabel":"Philippines","countryFlag":"http://commons.wikimedia.org/wiki/Special:FilePath/Flag%20of%20the%20Philippines.svg","itemLabel":"Francisco Bangoy International Airport","longitude":"125.645778","latitude":"7.125522","MAX_patronage":"4234667"},{"paysLabel":"Indonesia","countryFlag":"http://commons.wikimedia.org/wiki/Special:FilePath/Flag%20of%20Indonesia.svg","itemLabel":"Supadio Airport","longitude":"109.403888","latitude":"-0.1505555","MAX_patronage":"4220000"},{"paysLabel":"Mexico","countryFlag":"http://commons.wikimedia.org/wiki/Special:FilePath/Flag%20of%20Mexico.svg","itemLabel":"Cancún International Airport","longitude":"-86.876944","latitude":"21.036667","MAX_patronage":"4213177"},{"paysLabel":"Thailand","countryFlag":"http://commons.wikimedia.org/wiki/Special:FilePath/Flag%20of%20Thailand.svg","itemLabel":"Krabi Airport","longitude":"98.9853138","latitude":"8.10016388","MAX_patronage":"4193099"},{"paysLabel":"Turkey","countryFlag":"http://commons.wikimedia.org/wiki/Special:FilePath/Flag%20of%20Turkey.svg","itemLabel":"Milas-Bodrum Airport","longitude":"27.6641666","latitude":"37.2505555","MAX_patronage":"4185961"},{"paysLabel":"United States of America","countryFlag":"http://commons.wikimedia.org/wiki/Special:FilePath/Flag%20of%20the%20United%20States.svg","itemLabel":"Memphis International Airport","longitude":"-89.976666","latitude":"35.0425","MAX_patronage":"4157760"},{"paysLabel":"Indonesia","countryFlag":"http://commons.wikimedia.org/wiki/Special:FilePath/Flag%20of%20Indonesia.svg","itemLabel":"Lombok International Airport","longitude":"116.276675","latitude":"-8.7573222","MAX_patronage":"4139371"},{"paysLabel":"Indonesia","countryFlag":"http://commons.wikimedia.org/wiki/Special:FilePath/Flag%20of%20Indonesia.svg","itemLabel":"Sultan Syarif Kasim II Airport","longitude":"101.444444","latitude":"0.46083333","MAX_patronage":"4135762"},{"paysLabel":"Indonesia","countryFlag":"http://commons.wikimedia.org/wiki/Special:FilePath/Flag%20of%20Indonesia.svg","itemLabel":"Minangkabau International Airport","longitude":"100.280555","latitude":"-0.7866666","MAX_patronage":"4130000"},{"paysLabel":"Italy","countryFlag":"http://commons.wikimedia.org/wiki/Special:FilePath/Flag%20of%20Italy.svg","itemLabel":"Turin Airport","longitude":"7.649595","latitude":"45.201787","MAX_patronage":"4084923"},{"paysLabel":"South Korea","countryFlag":"http://commons.wikimedia.org/wiki/Special:FilePath/Flag%20of%20South%20Korea.svg","itemLabel":"Daegu International Airport","longitude":"128.658888","latitude":"35.8941666","MAX_patronage":"4062833"},{"paysLabel":"United Kingdom","countryFlag":"http://commons.wikimedia.org/wiki/Special:FilePath/Flag%20of%20the%20United%20Kingdom.svg","itemLabel":"Leeds Bradford International Airport","longitude":"-1.6605555","latitude":"53.8658333","MAX_patronage":"4037686"},{"paysLabel":"Luxembourg","countryFlag":"http://commons.wikimedia.org/wiki/Special:FilePath/Flag%20of%20Luxembourg.svg","itemLabel":"Luxembourg Airport","longitude":"6.20444444","latitude":"49.6233333","MAX_patronage":"4036878"},{"paysLabel":"Turkey","countryFlag":"http://commons.wikimedia.org/wiki/Special:FilePath/Flag%20of%20Turkey.svg","itemLabel":"Trabzon Airport","longitude":"39.787489","latitude":"40.9954665","MAX_patronage":"4024340"},{"paysLabel":"Turkish Republic of Northern Cyprus","countryFlag":"http://commons.wikimedia.org/wiki/Special:FilePath/Flag%20of%20the%20Turkish%20Republic%20of%20Northern%20Cyprus.svg","itemLabel":"Ercan International Airport","longitude":"33.488372","latitude":"35.159647","MAX_patronage":"4020229"},{"paysLabel":"Australia","countryFlag":"http://commons.wikimedia.org/wiki/Special:FilePath/Flag%20of%20Australia%20%28converted%29.svg","itemLabel":"Sydney Airport","longitude":"151.177222","latitude":"-33.946111","MAX_patronage":"3945728"},{"paysLabel":"People's Republic of China","countryFlag":"http://commons.wikimedia.org/wiki/Special:FilePath/Flag%20of%20the%20People%27s%20Republic%20of%20China.svg","itemLabel":"Mianyang Nanjiao Airport","longitude":"104.739722","latitude":"31.43","MAX_patronage":"3938882"},{"paysLabel":"Brazil","countryFlag":"http://commons.wikimedia.org/wiki/Special:FilePath/Flag%20of%20Brazil.svg","itemLabel":"São Paulo-Guarulhos International Airport","longitude":"-46.477427","latitude":"-23.430577","MAX_patronage":"3860239"},{"paysLabel":"Indonesia","countryFlag":"http://commons.wikimedia.org/wiki/Special:FilePath/Flag%20of%20Indonesia.svg","itemLabel":"Syamsudin Noor Airport","longitude":"114.7625","latitude":"-3.4422222","MAX_patronage":"3854561"},{"paysLabel":"Georgia","countryFlag":"http://commons.wikimedia.org/wiki/Special:FilePath/Flag%20of%20Georgia%20official.svg","itemLabel":"Tbilisi International Airport","longitude":"44.9547221","latitude":"41.6691668","MAX_patronage":"3808619"},{"paysLabel":"Mauritius","countryFlag":"http://commons.wikimedia.org/wiki/Special:FilePath/Flag%20of%20Mauritius.svg","itemLabel":"Sir Seewoosagur Ramgoolam International Airport","longitude":"57.6830222","latitude":"-20.430027","MAX_patronage":"3728970"},{"paysLabel":"United States of America","countryFlag":"http://commons.wikimedia.org/wiki/Special:FilePath/Flag%20of%20the%20United%20States.svg","itemLabel":"Will Rogers World Airport","longitude":"-97.600833","latitude":"35.3930555","MAX_patronage":"3715305"},{"paysLabel":"Bahamas","countryFlag":"http://commons.wikimedia.org/wiki/Special:FilePath/Flag%20of%20the%20Bahamas.svg","itemLabel":"Lynden Pindling International Airport","longitude":"-77.466111","latitude":"25.0388888","MAX_patronage":"3693146"},{"paysLabel":"Russia","countryFlag":"http://commons.wikimedia.org/wiki/Special:FilePath/Flag%20of%20Russia.svg","itemLabel":"Sheremetyevo International Airport","longitude":"37.4145888","latitude":"55.9726416","MAX_patronage":"3661809"},{"paysLabel":"United States of America","countryFlag":"http://commons.wikimedia.org/wiki/Special:FilePath/Flag%20of%20the%20United%20States.svg","itemLabel":"Charleston International Airport","longitude":"-80.040555","latitude":"32.8986111","MAX_patronage":"3656689"},{"paysLabel":"United States of America","countryFlag":"http://commons.wikimedia.org/wiki/Special:FilePath/Flag%20of%20the%20United%20States.svg","itemLabel":"T. F. Green Airport","longitude":"-71.428333","latitude":"41.7238888","MAX_patronage":"3653029"},{"paysLabel":"United States of America","countryFlag":"http://commons.wikimedia.org/wiki/Special:FilePath/Flag%20of%20the%20United%20States.svg","itemLabel":"Reno–Tahoe International Airport","longitude":"-119.76805","latitude":"39.4991666","MAX_patronage":"3650830"},{"paysLabel":"United States of America","countryFlag":"http://commons.wikimedia.org/wiki/Special:FilePath/Flag%20of%20the%20United%20States.svg","itemLabel":"Richmond International Airport","longitude":"-77.3194","latitude":"37.505","MAX_patronage":"3559052"},{"paysLabel":"Iran","countryFlag":"http://commons.wikimedia.org/wiki/Special:FilePath/Flag%20of%20Iran.svg","itemLabel":"Shiraz International Airport, Iran","longitude":"52.59","latitude":"29.5391666","MAX_patronage":"3530525"},{"paysLabel":"Malaysia","countryFlag":"http://commons.wikimedia.org/wiki/Special:FilePath/Flag%20of%20Malaysia.svg","itemLabel":"Senai International Airport","longitude":"103.669027","latitude":"1.64194444","MAX_patronage":"3522576"},{"paysLabel":"Sudan","countryFlag":"http://commons.wikimedia.org/wiki/Special:FilePath/Flag%20of%20Sudan.svg","itemLabel":"Khartoum International Airport","longitude":"32.5531611","latitude":"15.5894972","MAX_patronage":"3492097"},{"paysLabel":"Italy","countryFlag":"http://commons.wikimedia.org/wiki/Special:FilePath/Flag%20of%20Italy.svg","itemLabel":"Verona Villafranca Airport","longitude":"10.8880555","latitude":"45.3963888","MAX_patronage":"3459807"},{"paysLabel":"Spain","countryFlag":"http://commons.wikimedia.org/wiki/Special:FilePath/Flag%20of%20Spain.svg","itemLabel":"Menorca Airport","longitude":"4.218611","latitude":"39.8625","MAX_patronage":"3442752"},{"paysLabel":"El Salvador","countryFlag":"http://commons.wikimedia.org/wiki/Special:FilePath/Flag%20of%20El%20Salvador.svg","itemLabel":"Monseñor Óscar Arnulfo Romero International Airport","longitude":"-89.055727","latitude":"13.4409472","MAX_patronage":"3411015"},{"paysLabel":"Vietnam","countryFlag":"http://commons.wikimedia.org/wiki/Special:FilePath/Flag%20of%20Vietnam.svg","itemLabel":"Phu Quoc International Airport","longitude":"103.991111","latitude":"10.1716666","MAX_patronage":"3400000"},{"paysLabel":"Argentina","countryFlag":"http://commons.wikimedia.org/wiki/Special:FilePath/Flag%20of%20Argentina.svg","itemLabel":"Ingeniero Aeronáutico Ambrosio L.V. Taravella International Airport","longitude":"-64.208333","latitude":"-31.31","MAX_patronage":"3387530"},{"paysLabel":"Japan","countryFlag":"http://commons.wikimedia.org/wiki/Special:FilePath/Flag%20of%20Japan.svg","itemLabel":"Narita International Airport","longitude":"140.38845","latitude":"35.7649","MAX_patronage":"3371751"},{"paysLabel":"Greece","countryFlag":"http://commons.wikimedia.org/wiki/Special:FilePath/Flag%20of%20Greece.svg","itemLabel":"Corfu International Airport","longitude":"19.912222","latitude":"39.601945","MAX_patronage":"3364115"},{"paysLabel":"Poland","countryFlag":"http://commons.wikimedia.org/wiki/Special:FilePath/Flag%20of%20Poland.svg","itemLabel":"Wrocław – Copernicus Airport","longitude":"16.8858333","latitude":"51.1027777","MAX_patronage":"3346622"},{"paysLabel":"United States of America","countryFlag":"http://commons.wikimedia.org/wiki/Special:FilePath/Flag%20of%20the%20United%20States.svg","itemLabel":"Louisville International Airport","longitude":"-85.736388","latitude":"38.1741666","MAX_patronage":"3346545"},{"paysLabel":"People's Republic of China","countryFlag":"http://commons.wikimedia.org/wiki/Special:FilePath/Flag%20of%20the%20People%27s%20Republic%20of%20China.svg","itemLabel":"Changzhou Benniu Airport","longitude":"119.77603","latitude":"31.919276","MAX_patronage":"3327722"},{"paysLabel":"Italy","countryFlag":"http://commons.wikimedia.org/wiki/Special:FilePath/Flag%20of%20Italy.svg","itemLabel":"Treviso Airport","longitude":"12.1977777","latitude":"45.6508333","MAX_patronage":"3308955"},{"paysLabel":"Japan","countryFlag":"http://commons.wikimedia.org/wiki/Special:FilePath/Flag%20of%20Japan.svg","itemLabel":"Kumamoto Airport","longitude":"130.855277","latitude":"32.8372222","MAX_patronage":"3303242"},{"paysLabel":"United States of America","countryFlag":"http://commons.wikimedia.org/wiki/Special:FilePath/Flag%20of%20the%20United%20States.svg","itemLabel":"Tucson International Airport","longitude":"-110.93605","latitude":"32.1157055","MAX_patronage":"3285654"},{"paysLabel":"Bulgaria","countryFlag":"http://commons.wikimedia.org/wiki/Special:FilePath/Flag%20of%20Bulgaria.svg","itemLabel":"Burgas Airport","longitude":"27.5152777","latitude":"42.5702777","MAX_patronage":"3277229"},{"paysLabel":"Australia","countryFlag":"http://commons.wikimedia.org/wiki/Special:FilePath/Flag%20of%20Australia%20%28converted%29.svg","itemLabel":"Melbourne Airport","longitude":"144.847576","latitude":"-37.673801","MAX_patronage":"3258151"},{"paysLabel":"Russia","countryFlag":"http://commons.wikimedia.org/wiki/Special:FilePath/Flag%20of%20Russia.svg","itemLabel":"Platov International Airport","longitude":"39.9239722","latitude":"47.4715555","MAX_patronage":"3236000"},{"paysLabel":"United States of America","countryFlag":"http://commons.wikimedia.org/wiki/Special:FilePath/Flag%20of%20the%20United%20States.svg","itemLabel":"Spokane International Airport","longitude":"-117.534","latitude":"47.62","MAX_patronage":"3234095"},{"paysLabel":"United States of America","countryFlag":"http://commons.wikimedia.org/wiki/Special:FilePath/Flag%20of%20the%20United%20States.svg","itemLabel":"Fort Lauderdale–Hollywood International Airport","longitude":"-80.152777","latitude":"26.0725","MAX_patronage":"3231115"},{"paysLabel":"United States of America","countryFlag":"http://commons.wikimedia.org/wiki/Special:FilePath/Flag%20of%20the%20United%20States.svg","itemLabel":"Boise Airport","longitude":"-116.22277","latitude":"43.5644444","MAX_patronage":"3230878"},{"paysLabel":"United States of America","countryFlag":"http://commons.wikimedia.org/wiki/Special:FilePath/Flag%20of%20the%20United%20States.svg","itemLabel":"Norfolk International Airport","longitude":"-76.2011","latitude":"36.8947","MAX_patronage":"3212506"},{"paysLabel":"Japan","countryFlag":"http://commons.wikimedia.org/wiki/Special:FilePath/Flag%20of%20Japan.svg","itemLabel":"Kobe Airport","longitude":"135.223888","latitude":"34.6327777","MAX_patronage":"3182000"},{"paysLabel":"Japan","countryFlag":"http://commons.wikimedia.org/wiki/Special:FilePath/Flag%20of%20Japan.svg","itemLabel":"Miyazaki Airport","longitude":"131.448611","latitude":"31.8772222","MAX_patronage":"3170368"},{"paysLabel":"Japan","countryFlag":"http://commons.wikimedia.org/wiki/Special:FilePath/Flag%20of%20Japan.svg","itemLabel":"Nagasaki Airport","longitude":"129.913611","latitude":"32.9169444","MAX_patronage":"3165385"},{"paysLabel":"Russia","countryFlag":"http://commons.wikimedia.org/wiki/Special:FilePath/Flag%20of%20Russia.svg","itemLabel":"Kazan International Airport","longitude":"49.2816666","latitude":"55.6066666","MAX_patronage":"3141776"},{"paysLabel":"United States of America","countryFlag":"http://commons.wikimedia.org/wiki/Special:FilePath/Flag%20of%20the%20United%20States.svg","itemLabel":"Orlando Sanford International Airport","longitude":"-81.2375","latitude":"28.7777777","MAX_patronage":"3094000"},{"paysLabel":"United States of America","countryFlag":"http://commons.wikimedia.org/wiki/Special:FilePath/Flag%20of%20the%20United%20States.svg","itemLabel":"Kona International Airport","longitude":"-156.04555","latitude":"19.7388888","MAX_patronage":"3088641"},{"paysLabel":"Poland","countryFlag":"http://commons.wikimedia.org/wiki/Special:FilePath/Flag%20of%20Poland.svg","itemLabel":"Warsaw-Modlin Mazovia Airport","longitude":"20.6516666","latitude":"52.4511111","MAX_patronage":"3081966"},{"paysLabel":"India","countryFlag":"http://commons.wikimedia.org/wiki/Special:FilePath/Flag%20of%20India.svg","itemLabel":"Kempegowda International Airport","longitude":"77.7055555","latitude":"13.1988888","MAX_patronage":"3065251"},{"paysLabel":"United Kingdom","countryFlag":"http://commons.wikimedia.org/wiki/Special:FilePath/Flag%20of%20the%20United%20Kingdom.svg","itemLabel":"Aberdeen Airport","longitude":"-2.197778","latitude":"57.201944","MAX_patronage":"3055995"},{"paysLabel":"Japan","countryFlag":"http://commons.wikimedia.org/wiki/Special:FilePath/Flag%20of%20Japan.svg","itemLabel":"Matsuyama Airport","longitude":"132.699722","latitude":"33.8272222","MAX_patronage":"3028693"},{"paysLabel":"Greece","countryFlag":"http://commons.wikimedia.org/wiki/Special:FilePath/Flag%20of%20Greece.svg","itemLabel":"Chania International Airport","longitude":"24.1496777","latitude":"35.5317472","MAX_patronage":"3008687"},{"paysLabel":"Estonia","countryFlag":"http://commons.wikimedia.org/wiki/Special:FilePath/Flag%20of%20Estonia.svg","itemLabel":"Tallinn Airport","longitude":"24.7991666","latitude":"59.4163888","MAX_patronage":"3007644"},{"paysLabel":"Italy","countryFlag":"http://commons.wikimedia.org/wiki/Special:FilePath/Flag%20of%20Italy.svg","itemLabel":"Olbia Costa Smeralda Airport","longitude":"9.51762777","latitude":"40.8986611","MAX_patronage":"2999253"},{"paysLabel":"Japan","countryFlag":"http://commons.wikimedia.org/wiki/Special:FilePath/Flag%20of%20Japan.svg","itemLabel":"Hiroshima Airport","longitude":"132.919444","latitude":"34.4361111","MAX_patronage":"2975385"},{"paysLabel":"People's Republic of China","countryFlag":"http://commons.wikimedia.org/wiki/Special:FilePath/Flag%20of%20the%20People%27s%20Republic%20of%20China.svg","itemLabel":"Yichang Airport","longitude":"111.479944","latitude":"30.5564722","MAX_patronage":"2948668"},{"paysLabel":"Iran","countryFlag":"http://commons.wikimedia.org/wiki/Special:FilePath/Flag%20of%20Iran.svg","itemLabel":"Ahwaz International Airport","longitude":"48.76195","latitude":"31.3374305","MAX_patronage":"2939958"},{"paysLabel":"Iran","countryFlag":"http://commons.wikimedia.org/wiki/Special:FilePath/Flag%20of%20Iran.svg","itemLabel":"Kish International Airport","longitude":"53.9799665","latitude":"26.5266887","MAX_patronage":"2926752"},{"paysLabel":"Thailand","countryFlag":"http://commons.wikimedia.org/wiki/Special:FilePath/Flag%20of%20Thailand.svg","itemLabel":"Mae Fah Luang – Chiang Rai International Airport","longitude":"99.8827777","latitude":"19.9522222","MAX_patronage":"2867289"},{"paysLabel":"Trinidad and Tobago","countryFlag":"http://commons.wikimedia.org/wiki/Special:FilePath/Flag%20of%20Trinidad%20and%20Tobago.svg","itemLabel":"Piarco International Airport","longitude":"-61.337222","latitude":"10.5952777","MAX_patronage":"2840643"},{"paysLabel":"United States of America","countryFlag":"http://commons.wikimedia.org/wiki/Special:FilePath/Flag%20of%20the%20United%20States.svg","itemLabel":"Lihue Airport","longitude":"-159.33888","latitude":"21.976111","MAX_patronage":"2832281"},{"paysLabel":"Moldova","countryFlag":"http://commons.wikimedia.org/wiki/Special:FilePath/Flag%20of%20Moldova.svg","itemLabel":"Chișinău International Airport","longitude":"28.9308333","latitude":"46.9277777","MAX_patronage":"2828626"},{"paysLabel":"Indonesia","countryFlag":"http://commons.wikimedia.org/wiki/Special:FilePath/Flag%20of%20Indonesia.svg","itemLabel":"Sam Ratulangi International Airport","longitude":"124.926388","latitude":"1.54916666","MAX_patronage":"2819640"},{"paysLabel":"United States of America","countryFlag":"http://commons.wikimedia.org/wiki/Special:FilePath/Flag%20of%20the%20United%20States.svg","itemLabel":"Albany International Airport","longitude":"-73.801944","latitude":"42.7491666","MAX_patronage":"2818643"},{"paysLabel":"Ukraine","countryFlag":"http://commons.wikimedia.org/wiki/Special:FilePath/Flag%20of%20Ukraine.svg","itemLabel":"Kyiv Zhuliany International Airport","longitude":"30.4516666","latitude":"50.4016666","MAX_patronage":"2812300"},{"paysLabel":"United States of America","countryFlag":"http://commons.wikimedia.org/wiki/Special:FilePath/Flag%20of%20the%20United%20States.svg","itemLabel":"Tulsa International Airport","longitude":"-95.888055","latitude":"36.1983333","MAX_patronage":"2810627"},{"paysLabel":"United States of America","countryFlag":"http://commons.wikimedia.org/wiki/Special:FilePath/Flag%20of%20the%20United%20States.svg","itemLabel":"El Paso International Airport","longitude":"-106.3775","latitude":"31.8072222","MAX_patronage":"2807734"},{"paysLabel":"United States of America","countryFlag":"http://commons.wikimedia.org/wiki/Special:FilePath/Flag%20of%20the%20United%20States.svg","itemLabel":"Long Beach Airport","longitude":"-118.15166","latitude":"33.8177777","MAX_patronage":"2794185"},{"paysLabel":"Iran","countryFlag":"http://commons.wikimedia.org/wiki/Special:FilePath/Flag%20of%20Iran.svg","itemLabel":"Isfahan International Airport","longitude":"51.8611111","latitude":"32.7508333","MAX_patronage":"2784616"},{"paysLabel":"Romania","countryFlag":"http://commons.wikimedia.org/wiki/Special:FilePath/Flag%20of%20Romania.svg","itemLabel":"Cluj International Airport","longitude":"23.68612","latitude":"46.785092","MAX_patronage":"2782401"},{"paysLabel":"People's Republic of China","countryFlag":"http://commons.wikimedia.org/wiki/Special:FilePath/Flag%20of%20the%20People%27s%20Republic%20of%20China.svg","itemLabel":"Nantong Xingdong Airport","longitude":"120.975555","latitude":"32.0708333","MAX_patronage":"2771326"},{"paysLabel":"Italy","countryFlag":"http://commons.wikimedia.org/wiki/Special:FilePath/Flag%20of%20Italy.svg","itemLabel":"Lamezia Terme International Airport","longitude":"16.2422222","latitude":"38.9052777","MAX_patronage":"2756211"},{"paysLabel":"Malaysia","countryFlag":"http://commons.wikimedia.org/wiki/Special:FilePath/Flag%20of%20Malaysia.svg","itemLabel":"Langkawi International Airport","longitude":"99.7286111","latitude":"6.32972222","MAX_patronage":"2735703"},{"paysLabel":"Spain","countryFlag":"http://commons.wikimedia.org/wiki/Special:FilePath/Flag%20of%20Spain.svg","itemLabel":"Santiago de Compostela Airport","longitude":"-8.415145","latitude":"42.896333","MAX_patronage":"2724750"},{"paysLabel":"Canada","countryFlag":"http://commons.wikimedia.org/wiki/Special:FilePath/Flag%20of%20Canada%20%28Pantone%29.svg","itemLabel":"Billy Bishop Toronto City Airport","longitude":"-79.396111","latitude":"43.6275","MAX_patronage":"2724221"},{"paysLabel":"Italy","countryFlag":"http://commons.wikimedia.org/wiki/Special:FilePath/Flag%20of%20Italy.svg","itemLabel":"Florence Airport, Peretola","longitude":"11.202905","latitude":"43.808763","MAX_patronage":"2719081"},{"paysLabel":"Armenia","countryFlag":"http://commons.wikimedia.org/wiki/Special:FilePath/Flag%20of%20Armenia.svg","itemLabel":"Zvartnots International Airport","longitude":"44.3958333","latitude":"40.1472222","MAX_patronage":"2690727"},{"paysLabel":"Greece","countryFlag":"http://commons.wikimedia.org/wiki/Special:FilePath/Flag%20of%20Greece.svg","itemLabel":"Kos Island International Airport","longitude":"27.0916666","latitude":"36.7933361","MAX_patronage":"2666307"},{"paysLabel":"Philippines","countryFlag":"http://commons.wikimedia.org/wiki/Special:FilePath/Flag%20of%20the%20Philippines.svg","itemLabel":"Clark International Airport","longitude":"120.559722","latitude":"15.1858333","MAX_patronage":"2664378"},{"paysLabel":"Turkey","countryFlag":"http://commons.wikimedia.org/wiki/Special:FilePath/Flag%20of%20Turkey.svg","itemLabel":"Oğuzeli Airport","longitude":"37.4788884","latitude":"36.9477778","MAX_patronage":"2655336"},{"paysLabel":"United States of America","countryFlag":"http://commons.wikimedia.org/wiki/Special:FilePath/Flag%20of%20the%20United%20States.svg","itemLabel":"Gerald R. Ford International Airport","longitude":"-85.522777","latitude":"42.8808333","MAX_patronage":"2653630"},{"paysLabel":"United States of America","countryFlag":"http://commons.wikimedia.org/wiki/Special:FilePath/Flag%20of%20the%20United%20States.svg","itemLabel":"Birmingham-Shuttlesworth International Airport","longitude":"-86.752222","latitude":"33.5638888","MAX_patronage":"2653207"},{"paysLabel":"Thailand","countryFlag":"http://commons.wikimedia.org/wiki/Special:FilePath/Flag%20of%20Thailand.svg","itemLabel":"Udon Thani International Airport","longitude":"102.788333","latitude":"17.386388","MAX_patronage":"2651242"},{"paysLabel":"Indonesia","countryFlag":"http://commons.wikimedia.org/wiki/Special:FilePath/Flag%20of%20Indonesia.svg","itemLabel":"Radin Inten II Airport","longitude":"105.178889","latitude":"-5.2425","MAX_patronage":"2643225"},{"paysLabel":"Indonesia","countryFlag":"http://commons.wikimedia.org/wiki/Special:FilePath/Flag%20of%20Indonesia.svg","itemLabel":"Adisumarmo International Airport","longitude":"110.756944","latitude":"-7.5161111","MAX_patronage":"2639301"},{"paysLabel":"Taiwan","countryFlag":"http://commons.wikimedia.org/wiki/Special:FilePath/Flag%20of%20the%20Republic%20of%20China.svg","itemLabel":"Taichung Airport","longitude":"120.637410","latitude":"24.2256485","MAX_patronage":"2638774"},{"paysLabel":"Thailand","countryFlag":"http://commons.wikimedia.org/wiki/Special:FilePath/Flag%20of%20Thailand.svg","itemLabel":"Samui Airport","longitude":"100.062222","latitude":"9.54777777","MAX_patronage":"2631710"},{"paysLabel":"Colombia","countryFlag":"http://commons.wikimedia.org/wiki/Special:FilePath/Flag%20of%20Colombia.svg","itemLabel":"Ernesto Cortissoz International Airport","longitude":"-74.781766","latitude":"10.8885694","MAX_patronage":"2582290"},{"paysLabel":"Guatemala","countryFlag":"http://commons.wikimedia.org/wiki/Special:FilePath/Flag%20of%20Guatemala.svg","itemLabel":"La Aurora International Airport","longitude":"-90.5275","latitude":"14.5833333","MAX_patronage":"2579123"},{"paysLabel":"Germany","countryFlag":"http://commons.wikimedia.org/wiki/Special:FilePath/Flag%20of%20Germany.svg","itemLabel":"Leipzig/Halle Airport","longitude":"12.2363888","latitude":"51.4238888","MAX_patronage":"2567783"},{"paysLabel":"Germany","countryFlag":"http://commons.wikimedia.org/wiki/Special:FilePath/Flag%20of%20Germany.svg","itemLabel":"Bremen Airport","longitude":"8.786667","latitude":"53.0475","MAX_patronage":"2561535"},{"paysLabel":"People's Republic of China","countryFlag":"http://commons.wikimedia.org/wiki/Special:FilePath/Flag%20of%20the%20People%27s%20Republic%20of%20China.svg","itemLabel":"Zhanjiang Airport","longitude":"110.357777","latitude":"21.2175","MAX_patronage":"2559507"},{"paysLabel":"Kingdom of the Netherlands","countryFlag":"http://commons.wikimedia.org/wiki/Special:FilePath/Flag%20of%20the%20Netherlands.svg","itemLabel":"Queen Beatrix International Airport","longitude":"-70.015277","latitude":"12.5013888","MAX_patronage":"2546360"},{"paysLabel":"Taiwan","countryFlag":"http://commons.wikimedia.org/wiki/Special:FilePath/Flag%20of%20the%20Republic%20of%20China.svg","itemLabel":"Magong Airport","longitude":"119.63","latitude":"23.5666666","MAX_patronage":"2528820"},{"paysLabel":"Philippines","countryFlag":"http://commons.wikimedia.org/wiki/Special:FilePath/Flag%20of%20the%20Philippines.svg","itemLabel":"Kalibo International Airport","longitude":"122.37765","latitude":"11.681337","MAX_patronage":"2520168"},{"paysLabel":"People's Republic of China","countryFlag":"http://commons.wikimedia.org/wiki/Special:FilePath/Flag%20of%20the%20People%27s%20Republic%20of%20China.svg","itemLabel":"Xuzhou Guanyin Airport","longitude":"117.555277","latitude":"34.0590555","MAX_patronage":"2518799"},{"paysLabel":"United Kingdom","countryFlag":"http://commons.wikimedia.org/wiki/Special:FilePath/Flag%20of%20the%20United%20Kingdom.svg","itemLabel":"George Best Belfast City Airport","longitude":"-5.871233","latitude":"54.615486","MAX_patronage":"2510294"},{"paysLabel":"People's Republic of China","countryFlag":"http://commons.wikimedia.org/wiki/Special:FilePath/Flag%20of%20the%20People%27s%20Republic%20of%20China.svg","itemLabel":"Weihai Dashuibo Airport","longitude":"122.228888","latitude":"37.1869444","MAX_patronage":"2508155"},{"paysLabel":"Japan","countryFlag":"http://commons.wikimedia.org/wiki/Special:FilePath/Flag%20of%20Japan.svg","itemLabel":"New Ishigaki Airport","longitude":"124.245","latitude":"24.3963888","MAX_patronage":"2505886"},{"paysLabel":"France","countryFlag":"http://commons.wikimedia.org/wiki/Special:FilePath/Flag%20of%20France.svg","itemLabel":"Orly Airport","longitude":"2.379444","latitude":"48.723333","MAX_patronage":"2503098"},{"paysLabel":"United States of America","countryFlag":"http://commons.wikimedia.org/wiki/Special:FilePath/Flag%20of%20the%20United%20States.svg","itemLabel":"Des Moines International Airport","longitude":"-93.663055","latitude":"41.5338888","MAX_patronage":"2483924"},{"paysLabel":"Italy","countryFlag":"http://commons.wikimedia.org/wiki/Special:FilePath/Flag%20of%20Italy.svg","itemLabel":"Brindisi Airport","longitude":"17.9469444","latitude":"40.6575","MAX_patronage":"2478856"},{"paysLabel":"Poland","countryFlag":"http://commons.wikimedia.org/wiki/Special:FilePath/Flag%20of%20Poland.svg","itemLabel":"Poznań-Ławica Airport","longitude":"16.8263888","latitude":"52.4211111","MAX_patronage":"2476304"},{"paysLabel":"People's Republic of China","countryFlag":"http://commons.wikimedia.org/wiki/Special:FilePath/Flag%20of%20the%20People%27s%20Republic%20of%20China.svg","itemLabel":"Ordos Ejin Horo Airport","longitude":"109.862222","latitude":"39.4938888","MAX_patronage":"2475281"},{"paysLabel":"South Korea","countryFlag":"http://commons.wikimedia.org/wiki/Special:FilePath/Flag%20of%20South%20Korea.svg","itemLabel":"Cheongju International Airport","longitude":"127.499166","latitude":"36.7163888","MAX_patronage":"2453649"},{"paysLabel":"Taiwan","countryFlag":"http://commons.wikimedia.org/wiki/Special:FilePath/Flag%20of%20the%20Republic%20of%20China.svg","itemLabel":"Kinmen Airport","longitude":"118.359166","latitude":"24.4277777","MAX_patronage":"2429828"},{"paysLabel":"United States of America","countryFlag":"http://commons.wikimedia.org/wiki/Special:FilePath/Flag%20of%20the%20United%20States.svg","itemLabel":"Greater Rochester International Airport","longitude":"-77.6725","latitude":"43.1188888","MAX_patronage":"2393251"},